stop_id,stop_code,stop_name,stop_desc,stop_lat,stop_lon,zone_id,stop_url,location_type,parent_station,stop_timezone,wheelchair_boarding
10AHERNN,10AHERNN,10TH AVE N & HERMAN ST NB,10TH AV N & HERMAN ST,36.168831,-86.792339,,,,,,
12AARCSF,12AARCSF,12TH AVE S & ARCHER ST SB,1037 12TH AVE & ARCHER ST,36.145068,-86.78644,0,,,,,0
12AARCNN,12AARCNN,12TH AVE S & ARCHER ST,1025 12TH AVE & ARCHER ST,36.145223,-86.786227,,,,,,0
12AACLSN,12AACLSN,12TH AVE S & ACKLEN AVE SB,1905 S 12TH AVE & ACKLEN AVE,36.134037,-86.788948,,,,,,1
12ADEMNN,12ADEMNN,12TH AVE S & DEMONBREUN ST NB,12TH AV S & DEMONBREUN ST,36.154509,-86.786056,,,,,,
12ADIVNN,12ADIVNN,12TH AVE S & DIVISION ST NB,731 12TH AVE & DIVISION ST,36.150807,-86.784265,0,,,,,0
12AEDGSF,12AEDGSF,12TH AVE S & EDGEHILL AVE SB,1211 12TH AVE & EDGEHILL AVE,36.14247,-86.787177,,,,,,0
12AEDGNF,12AEDGNF,12TH AVE S & EDGEHILL AVE NB,1181 12TH AVE & EDGEHILL AVE,36.142991,-86.78689,,,,,,0
GRAFERSN,GRAFERSN,GRANNY WHITE PIKE & FERGUSON AVE SB,GRANNY WHITE PK & FERGUSON AV,36.118934,-86.791122,,,,,,
GRAFERNN,GRAFERNN,GRANNY WHITE PIKE & FERGUSON AVE NB,GRANNY WHITE PK & FERGUSON AV,36.118756,-86.791055,,,,,,
12AHORSF,12AHORSF,12TH AVE S & HORTON AVE SB,1327 12TH AVE & HORTON AVE,36.139604,-86.787684,,,,,,0
12AHORNF,12AHORNF,12TH AVE S & HORTON AVE NB,1289 12TH AVE & HORTON AVE,36.140116,-86.787477,,,,,,0
12ADOUNF,12ADOUNF,12TH AVE S & DOUGLAS AVE NB,2095 S 12TH AVE & DOUGLAS AVE S,36.131033,-86.788677,,,,,,0
12ALINNN,12ALINNN,12TH AVE S & LINDEN AVE NB,12TH AV S & LINDEN AV,36.127614,-86.789082,,,,,,0
12ASWENF,12ASWENF,12TH AVE S & SWEETBRIAR AVE NB,12TH AV S & SWEETBRIAR AV,36.123872,-86.789755,,,,,,
12ASOUSN,12ASOUSN,12TH AVE S & SOUTH ST SB,889 12TH AVE & SOUTH ST,36.147573,-86.785751,,,,,,0
12ASOUNN,12ASOUNN,12TH AVE S & SOUTH ST NB,907 12TH AVE & SOUTH ST,36.147186,-86.785703,,,,,,0
12AWEDNF,12AWEDNF,12TH AVE S & WEDGEWOOD AVE NB,1545 S 12TH AVE & WADE AVE,36.1365,-86.78846,,,,,,1
12AWEDSF,12AWEDSF,12TH AVE S & WEDGEWOOD SB,1659 S 12TH AVE & WEDGEWOOD AVE,36.13586,-86.7889,,,,,,1
12AWESNN,12AWESNN,12TH AVE S & WEST GROVE AVE NB,1903 S 12TH AVE & ACKLEN AVE,36.134306,-86.788828,,,,,,0
16SEASNN,16SEASNN,N 16TH ST & EASTLAND AVE NB,,36.182851,-86.740997,,,,,,
19SLILNN,19SLILNN,S 19TH ST & LILLIAN ST NB,,36.171492,-86.737189,,,,,,0
19SSHESN,19SSHESN,S 19TH ST & SHELBY AVE EB,,36.170153,-86.737493,,,,,,
1SJAMNM,1SJAMNM,N 1ST ST & JAMES ROBERTSON PKWY NB,N 1ST ST & MAIN ST,36.172643,-86.773761,,,,,,
1SWOONM,1SWOONM,S 1ST ST & WOODLAND ST NB,1ST ST S & MAIN ST,36.169739,-86.772489,,,,,,0
20ABRONF,20ABRONF,20TH AVE S & BROADWAY AVE NB,20TH AV S & BROADWAY,36.149954,-86.798191,,,,,,
20ACHUNN,20ACHUNN,20TH AVE N & CHURCH ST NB,20TH AV N & CHURCH ST,36.153222,-86.800614,,,,,,0
20ASTANF,20ASTANF,20TH AVE N & STATE ST,20TH AV N & STATE ST,36.154615,-86.801666,,,,,,
20AWESNN,20AWESNN,20TH AVE S & WEST END AVE NB,20TH AV S & WEST END AV,36.151061,-86.799021,0,,,,,0
21AACKSF,21AACKSF,21ST AVE S & ACKLEN AVE SB,21ST AV S & ACKLEN AV,36.135345,-86.801115,,,,,,0
21ACHINN,21ACHINN,21ST AVE S & CHILDRENS WAY NB,21ST AV S & CHILDRENS WY,36.138372,-86.800622,,,,,,0
21ABLANN,21ABLANN,21ST AVE S & BLAIR BLVD NB,21ST AV S & BLAIR BV,36.130158,-86.80197,,,,,,0
21ACAPSN,21ACAPSN,21ST AVE S & CAPERS AVE SB,21ST AV S & CAPERS AV,36.138881,-86.800622,,,0,,,0
21AEDGNF,21AEDGNF,21ST AVE S & EDGEHILL AVE NB,21ST AV S & EDGEHILL AV,36.144373,-86.799749,,,,,,
21AFAINN,21AFAINN,21ST AVE S & FAIRFAX AVE NB,US HWY 431 & 21ST AVE S,36.134135,-86.801021,,,,,,1
21AMEDNN,21AMEDNN,21ST AVE S & MEDICAL CENTER DR NB,21ST AV S & GARLAND AV,36.142676,-86.79995,,,,,,0
21AMEDSF,21AMEDSF,21ST AVE S & MEDICAL CENTER DR SB,21ST AV S & GARLAND AV,36.142489,-86.800118,,,,,,1
21AGRANN,21AGRANN,21ST AVE S & GRAND AVE NB,21ST AV S & GRAND AV,36.147335,-86.79928,,,,,,1
HER24AEN,HER24AEN,HERMAN ST & 24TH AVE N EB,HERMAN ST & 24TH AV N,36.162113,-86.812001,,,,,,
21APIENM,21APIENM,21ST AVE S & PIERCE AVE NB,21ST AV S & DIXIE PL,36.140259,-86.800294,,,,,,1
21APIESN,21APIESN,21ST AVE S & PIERCE AVE SB,21ST AV S & PIERCE AV,36.13998,-86.800488,,,,,,0
21AWOOSN,21AWOOSN,21ST AVE S & WOODLAWN DR SB,21ST AV S & WOODLAWN DR,36.125424,-86.805563,,,,,,0
23ACLANN,23ACLANN,23RD AVE N & CLARKSVILLE PIKE NB,23RD AV N & CLARKSVILLE PK,36.18348,-86.81422,,,,,,
23ASEINF,23ASEINF,23RD AVE N & SEIFRIED ST NB,23RD AV N & SEIFRIED ST,36.182274,-86.814331,,,,,,
23ASEISN,23ASEISN,23RD AVE N & SEIFRIED ST SB,,36.182177,-86.814445,,,,,,
25ADELNN,25ADELNN,25TH AVE N & DELK AVE NB,25TH AV N & DELK AV,36.178282,-86.816675,,,,,,
25AFINNN,25AFINNN,25TH AVE N & FINLAND ST NB,,36.17705,-86.816405,,,,,,
26ASALNN,26ASALNN,26TH AVE N & SALEM MASON DR NB,,36.182083,-86.819291,0,,,,,
2ASTOSM,2ASTOSM,2ND AVE N & STOCKYARD ST SB,2ND AV N & STOCKYARD ST,36.17165,-86.781297,,,,,,0
MXIFULTN,MXIFULTN,FULTON STATION INBOUND,2ND AV S & ASH ST,36.153527,-86.769698,,,,,,1
NXICHSNT,NXICHSNT,CHESTNUT STATION INBOUND,2ND AV S & CHESTNUT ST,36.145712,-86.764608,,,,,,1
NXIHART,NXIHART,HART STATION INBOUND,US HWY 31 ALT & US HWY 41 ALT,36.142163,-86.762307,,,,,,
2AVJUNSF,2AVJUNSF,2ND AVE N & JUNIOR GILLIAM WAY SB,2ND AV N & JACKSON ST,36.17411,-86.782895,,,,,,1
NXIPBODY,NXIPBODY,PEABODY STATION INBOUND,567 2ND AVE,36.156016,-86.771294,0,,,,,0
33AALASN,33AALASN,33RD AVE N & ALAMEDA ST SB,33RD AV N & ALAMEDA ST,36.164867,-86.826485,,,,,,
33AJOHSN,33AJOHSN,33RD AVE N & JOHN A MERRITT BLVD SB,1171 33RD AVE & CLOVER ST,36.166371,-86.826852,,,,,,0
33AJOHNM,33AJOHNM,33RD AVE N & JOHN A MERRITT BLVD NB,1175 33RD AVE & CLOVER ST,36.166513,-86.82674,,,,,,0
3AGARNN,3AGARNN,3RD AVE N & GARFIELD ST NB,3RD AV N & GARFIELD ST,36.183178,-86.789874,0,,,,,0
3AMONSN,3AMONSN,3RD AVE N & MONROE ST SB,3RD AV N & MONROE ST,36.177876,-86.786595,,,,,,
3AVANSF,3AVANSF,3RD AVE N & VAN BUREN ST SB,3 AVE & TAYLOR,36.179751,-86.787941,,,,,,
40ACLISN,40ACLISN,40TH AVE N & CLIFTON AVE SB,40 AVE & CLIFTON,36.158381,-86.834411,,,,,,
40APRESF,40APRESF,40TH AVE N & PRESTON TAYLOR PL SB,40TH AV N & PRESLOR DR,36.159882,-86.835354,,,,,,
NXOPBODY,NXOPBODY,PEABODY STATION OUTBOUND,477 4TH AVE & PEABODY ST,36.156172,-86.774124,,,,,,0
NXOCHSNT,NXOCHSNT,CHESTNUT STATION OUTBOUND,4TH AVE & CHESTNUT,36.144681,-86.766576,,,,,,1
4AVCHUSN,4AVCHUSN,4TH AVE N & CHURCH ST SB,,36.163796,-86.779079,,,,,,1
5AVCHUNN,5AVCHUNN,5TH AVE N & CHURCH ST NB,5TH AVE N & OPRY PL,36.163054,-86.780078,,,,,,0
5ACOMNN,5ACOMNN,5TH AVE N & COMMERCE ST NB,5TH AVE N & OPRY PL,36.161732,-86.779169,,,,,,0
5SFATSN,5SFATSN,S 5TH ST & FATHERLAND ST SB,208 5TH ST S & FATHERLAND ST,36.169934,-86.763728,,,,,,0
JAM6AWN,JAM6AWN,JAMES ROBERTSON PKWY & 6TH AVE N WB,5 AVE & JAMES ROBERTSON,36.168654,-86.785174,,,,,,0
5SRUSSN,5SRUSSN,S 5TH ST & RUSSELL ST SB,186 5TH ST S & RUSSELL ST,36.170924,-86.764321,,,,,,0
5SRUSNN,5SRUSNN,S 5TH ST & RUSSELL ST NB,507 RUSSELL ST & 5TH ST S,36.170808,-86.763991,,,,,,0
SHE5SEM,SHE5SEM,SHELBY AVE & S 5TH ST EB,529 SHELBY AVE,36.167743,-86.761642,,,,,,0
SHE5SWN,SHE5SWN,SHELBY AVE & S 5TH ST WB,517 SHELBY AVE & 5TH ST S,36.167788,-86.761976,,,,,,0
6AVCHUSN,6AVCHUSN,6TH AVE N & CHURCH ST SB,6TH AV N & UNKNOWN AL,36.16277,-86.781552,,,,,,0
8AALLSN,8AALLSN,8TH AVE S & ALLOWAY ST SB,8TH AVENUE & ALLOWAY,36.137599,-86.778773,,,,,,0
8AARCNN,8AARCNN,8TH AVE S & ARCHER ST NB,8TH AVENUE & ARCHER,36.144897,-86.778803,,,,,,
8AARCSN,8AARCSN,8TH AVE S & ARCHER ST SB,8TH AVENUE & ARCHER,36.145403,-86.779128,,,,,,0
8AARGNN,8AARGNN,8TH AVE S & E ARGYLE AVE NB,8TH AVENUE & ARGYLE,36.135939,-86.778772,,,,,,
8ABASNN,8ABASNN,8TH AVE S & BASS ST NB,8TH AVENUE & BASS,36.147269,-86.778953,,,,,,
8AVDOUNF,8AVDOUNF,8TH AVE S & DOUGLAS AVE NB,8TH AVENUE & BENTON,36.132334,-86.779053,,,,,,
8ABRASN,8ABRASN,8TH AVE S & BRADFORD AVE SB,8TH AVENUE & BRADFORD,36.128913,-86.778188,,,,,,
8ABRONM,8ABRONM,8TH AVE S & BROADWAY AVE NB,,36.159688,-86.782557,,,,,,1
8ABROSN,8ABROSN,8TH AVE S & BROADWAY AVE SB,105 ROSA L PARKS BLVD & BROADWAY AVE,36.159047,-86.782292,,,,,,1
8ADRESF,8ADRESF,8TH AVE S & DREXEL ST SB,553 8TH AVE S & DREXEL ST,36.152355,-86.779389,,,,,,0
8ADEMNN,8ADEMNN,8TH AVE S & DEMONBREUN ST NB,,36.156777,-86.78067,,,,,,0
8ADIVSN,8ADIVSN,8TH AVE S & DIVISION ST SB,,36.150067,-86.779301,,,,,,
8ACENSN,8ACENSN,8TH AVE S & CENTRAL ST SB,8TH AV S & CENTRAL ST,36.142204,-86.778845,,,,,,
8AHAMSN,8AHAMSN,8TH AVE S & HAMILTON AVE SB,8TH AVENUE & HAMILTON,36.139339,-86.778422,,,,,,
8ALOCSM,8ALOCSM,8TH AVE N & LOCKLAYER ST SB,8TH AV N & LOCKLAYER ST,36.170063,-86.789411,,,,,,
8AJEFSN,8AJEFSN,8TH AVE N & JEFFERSON ST SB,,36.17343,-86.791617,,,,,,
8AJEFSM,8AJEFSM,8TH AVE N & JEFFERSON ST SB,8TH AV N & JEFFERSON ST,36.172108,-86.790757,,,,,,0
8A9ANM,8A9ANM,8TH AVE N & 9TH AVE N NB,8TH AVE N & JEFFERSON,36.169933,-86.789091,,,,,,0
8AJEFNF,8AJEFNF,8TH AVE N & JEFFERSON ST NB,,36.173643,-86.791458,,,,,,0
8AVHAMNN,8AVHAMNN,8TH AVE S & HAMILTON AVE NB,8TH AVENUE S & LYNWOOD,36.139136,-86.778286,,,,,,
8ADEMSN,8ADEMSN,8TH AVE S & DEMONBREUN ST SB,191 8TH AVE S & DEMONBREUN ST,36.156975,-86.780929,,,,,,0
8AMADNN,8AMADNN,ROSA PARKS BLVD & MONROE ST NB,1267 ROSA L PARKS BLVD,36.175165,-86.792454,0,,,,,0
8AMONSN,8AMONSN,8TH AVE N & MONROE ST SB,,36.175428,-86.792952,,,,,,
8AOLYNN,8AOLYNN,8TH AVE S & OLYMPIC ST NB,US HWY 31 & 8TH AVE S,36.143383,-86.778744,,,,,,
8AOLYSN,8AOLYSN,8TH AVE S & OLYMPIC ST SB,8TH AVENUE S & OLYMPIC,36.143945,-86.778978,,,,,,
8APRENN,8APRENN,8TH AVE S & PRENTICE AVE NB,US HWY 31 & 8TH AVE S,36.130444,-86.778409,,,,,,0
8AROYSN,8AROYSN,8TH AVE S & ROYCROFT PL SB,8TH AVENUE S & ROY CROFT,36.133717,-86.77923,,,,,,
8ASOUSN,8ASOUSN,8TH AVE S & SOUTH ST SB,8 AVENUE S & SOUTH,36.147059,-86.779215,,,,,,
8AVERSN,8AVERSN,8TH AVE S & VERNON SB,8 AVENUE S & VERNON,36.140829,-86.778706,,,,,,
8AWEDNF,8AWEDNF,8TH AVE S & WEDGEWOOD AVE NB,8 AVENUE S & WEDGEWOOD,36.134544,-86.778981,,,,,,0
8AARGSM,8AARGSM,8TH AVE S & ARGYLE AV SB,8 AVENUE S & WEDGEWOOD,36.13524,-86.779147,,,,,,0
9ACOMSN,9ACOMSN,9TH AVE N & COMMERCE ST SB,,36.159941,-86.783744,,,,,,
ABBHILEM,ABBHILEM,ABBOTT MARTIN RD & HILLSBORO CIRCLE E,,36.106285,-86.818123,,,,,,0
APPMASWM,APPMASWM,APPLETON DR & MASSMAN DR WB,,36.151853,-86.70691,,,,,,
ACOELMSN,ACOELMSN,ACORN DR & ELM TREE DR SB,,36.151596,-86.700375,,,,,,
MASAPPWN,MASAPPWN,MASSMAN DR & APPLETON DR EB,MASSMAN DR & MOLLOY ST,36.152706,-86.704406,,,,,,
21AHERNN,21AHERNN,21ST AVE N & HERMOSA ST NB,21ST AV N & HERMOSA ST,36.163551,-86.808379,,,,,,
ALB21AWN,ALB21AWN,ALBION ST & 21ST AVE N WB,ALBION & 21 ST AVE N,36.165924,-86.808661,,,0,,,0
ALB21AEF,ALB21AEF,ALBION ST & 21ST AVE N EB,ALBION ST & 21ST AV N,36.165766,-86.80866,,,,,,0
ALBDBTEM,ALBDBTEM,ALBION ST & DR DB TODD BLVD EB,ALBION ST & 18TH AVE N,36.166079,-86.806394,,,,,,0
ANDALBNN,ANDALBNN,ANDREW JACKSON PKWY & ALBANY DR NB,,36.210434,-86.600197,,,,,,
ANDMAYWN,ANDMAYWN,ANDERSON RD & MAY DR WB,,36.272629,-86.69449,,,,,,
ANDTRENN,ANDTRENN,ANDREW JACKSON PKWY & TRENTON DR NB,,36.213487,-86.597721,,,,,,
ANNCHAWM,ANNCHAWM,ANNEX AVE & CHARLOTTE PIKE WB,ANNEX & PREMIER,36.140894,-86.882835,,,,,,
ATHDOMSM,ATHDOMSM,ATHENS WAY & DOMINICAN DR SB,,36.188265,-86.800339,0,,,,,
ATHFRESF,ATHFRESF,ATHENS WAY & FRENCH LANDING DR SB,,36.195772,-86.799921,,,,,,0
ATHMETSM,ATHMETSM,ATHENS WAY & METROCENTER SB,ATHENS WAY & METRO CENTER,36.194119,-86.801301,,,,,,
BAPLOCSM,BAPLOCSM,BAPTIST WORLD CENTER DR & LOCK DR SB,BAPTIST WORLD DR & LOCK DR,36.199003,-86.784718,,,,,,
BAPMEANM,BAPMEANM,BAPTIST WORLD CENTER DR & MEADE AVE NB,BAPTIST WORLD DR & ROGER AVE,36.203677,-86.789335,,,,,,0
BAPHAYSF,BAPHAYSF,BAPTIST WORLD CENTER DR & HAYNES MEADE CR SB,BAPTIST WORLD CTR DR & HAYNES MEADE CR,36.202074,-86.788515,,,,,,
BAPSEMNF,BAPSEMNF,BAPTIST WORLD CENTER DR & SEMINARY ST NB,1603 BAPTIST WORLD CENTER DR & SEMINARY ST,36.200787,-86.78693,,,,,,0
BAPLOCNM,BAPLOCNM,BAPTIST WORLD CENTER DR & LOCK RD NB,BAPTIST WORLD DR & SEMINARY ST,36.199178,-86.78474,,,,,,
BAPWEANN,BAPWEANN,BAPTIST WORLD CENTER DR & WEAKLEY AVE NB,,36.196511,-86.782523,,,,,,
BAPUNNSM,BAPUNNSM,BAPTIST WORLD CENTER DR & UNNAMED ST SB,BAPTIST WORLD CTR DR & VASHTI ST,36.195314,-86.780671,,,,,,
BAPWILEN,BAPWILEN,BAPTIST WORLD CENTER DR & WILLIS ST EB,BAPTIST WORLD DR & WILLIS,36.193904,-86.778438,,,,,,
BAPTRINN,BAPTRINN,BAPTIST WORLD CENTER DR & TRINITY LANE NB,2116 BAPTIST WORLD CENTER DR & GOOCH ST,36.206851,-86.791361,0,,,,,0
BAUSHEWN,BAUSHEWN,BAUGH RD & SHEFFIELD SQ WB,734 BAUGH RD,36.069199,-86.936292,,,,,,
HICHICNN,HICHICNN,HICKORY HOLLOW PL & HICKORY HOLLOW,PARKING LOT & MURFREESBORO PIKE,36.052658,-86.654986,,,,,,0
BELHHINN,BELHHINN,BELL RD & HICKORY HIGHLANDS DR NB,,36.059458,-86.641035,,,,,,
BELHHIWF,BELHHIWF,BELL RD & HICKORY HIGHLANDS DR WB,704 BELL RD,36.059938,-86.640929,,,,,,0
BELMORSN,BELMORSN,BELL RD & MORRIS GENTRY BLVD SB,BELL RD & MORRIS GENTRY BV,36.066713,-86.636764,,,,,,
BELMORNN,BELMORNN,BELL RD & MORRIS GENTRY BLVD NB,BELL ROAD & MORRIS GENTRY BV,36.066365,-86.636629,,,,,,0
BELBELSF,BELBELSF,BELL RD & BELL CREST DR SB,,36.0625,-86.637948,,,,,,0
BOYAMENN,BOYAMENN,BOYD DR & AMES DR NB,BOYD DRIVE & AMES DRIVE,36.226366,-86.826861,,,,,,
BOYBUENN,BOYBUENN,BOYD DR & BUENAVIEW BLVD NB,BUENAVIEW BLVD & TRUMPET CIR,36.227897,-86.827407,,,,,,
BOYFARNN,BOYFARNN,BOYD DR & FARMVIEW DR NB,BOYD DRIVE & FARMVIEW DR,36.225139,-86.826484,,,,,,
BRABENSF,BRABENSF,BRANSFORD AVE & BENTON AVE SB,,36.131479,-86.768385,,,,,,0
BRACRANF,BRACRANF,BRANSFORD AVE & CRAIGHEAD ST NB,,36.12615,-86.765965,,,,,,
BRABENNN,BRABENNN,BRANSFORD AVE & BENTON AVE NB,,36.131533,-86.768317,,,,,,0
BRAROSSF,BRAROSSF,BRANSFORD AVE  & ROSEDALE AVE SB,BRANSFORD AVE & MARTIN ST,36.124353,-86.765931,,,,,,
BRAROSNN,BRAROSNN,BRANSFORD AVE & ROSEDALE AVE NB,,36.124624,-86.765827,,,,,,
BRIBRIEM,BRIBRIEM,BRICKMONT DR & BRICKMONT CT EB,,36.246339,-86.771284,,,,,,
BRICHENN,BRICHENN,BRICK CHURCH PIKE & CHESAPEAKE DR NB,3424 BRICK CHURCH PIKE & CHESAPEAKE DR,36.245951,-86.779374,0,,,,,0
BRICHEEM,BRICHEEM,BRICKMONT CT & CHESAPEAKE DR EB,BRICKMONT DR & BRICKMONT CT,36.246237,-86.769869,,,,,,
BRICHEEN,BRICHEEN,BRICKMONT DR & CHESAPEAKE DR EB,,36.245437,-86.769046,,,,,,
BRIMASNN,BRIMASNN,BRICK CHURCH PIKE & MASONWOOD DR NB,,36.242007,-86.780511,,,,,,1
BRO9AWF,BRO9AWF,BROADWAY AVE & 9TH AVE S WB,BROADWAY & 10TH AV N,36.158394,-86.783577,0,,,,,0
BRO12WN,BRO12WN,BROADWAY AVE & 12TH AVE N WB,103 12TH AVE & BROADWAY AVE,36.156751,-86.787397,,,,,,0
BRO17AWN,BRO17AWN,BROADWAY AVE & 17TH AVE S WB,1692 BROADWAY AVE & 17TH AVE,36.153391,-86.793952,,,,,,0
BRO17AEN,BRO17AEN,BROADWAY AVE & 17TH AVE S EB,BROADWAY & 17 AVE,36.152984,-86.794235,,,,,,
BRO19AWN,BRO19AWN,BROADWAY AVE & 19TH AVE S WB,BROADWAY & 19 AVE,36.151258,-86.796363,,,,,,
BRO19AEN,BRO19AEN,BROADWAY AVE & 19TH AVE S EB,BROADWAY & 19TH AV S,36.150919,-86.796509,,,,,,0
BUC11AEN,BUC11AEN,BUCHANAN ST & 11TH AVE N EB,BUCHANAN & 11 AVE,36.180257,-86.804974,,,,,,
BUC14AEN,BUC14AEN,BUCHANAN ST & 14TH AVE N EB,BUCHANAN & 14 AVE,36.180115,-86.807214,,,,,,0
BUC15AWN,BUC15AWN,BUCHANAN ST & 15TH AVE N WB,BUCHANAN ST & 15TH AV N,36.180106,-86.808642,,,,,,
BUC23AWN,BUC23AWN,BUCHANAN ST & 23RD AVE N WB,BUCHANAN ST & 23RD AV N,36.180247,-86.814398,,,,,,
BUC9AEN,BUC9AEN,BUCHANAN ST & 9TH AVE N EB,,36.180437,-86.802526,,,,,,
BUCDBTEN,BUCDBTEN,BUCHANAN ST & DR DB TODD JR BLVD EB,1822 BUCHANAN ST & DR DB TODD JR BLVD,36.180042,-86.811208,,,,,,0
BUEBUEEM,BUEBUEEM,BUENAVIEW BLVD & BUENA VISTA PIKE E,BUENAVIEW BV & BUENA VISTA PK,36.228219,-86.823837,,,,,,
BUEHUMSN,BUEHUMSN,BUENA VISTA PIKE & HUMMINGBIRD DR S,BUENA VISTA PIKE & HUMMINGBIRD DRIVE,36.219326,-86.821003,,,,,,
BUEKINSN,BUEKINSN,BUENA VISTA PIKE & KINGS LN SB,BUENA VISTA PIKE & KINGS LANE,36.221075,-86.821432,,,,,,
BUEBUESM,BUEBUESM,BUENA VISTA PIKE & KINGS LN SB,BUENA VISTA DRIVE & BUENAVIEW BV,36.225337,-86.8226,,,,,,0
BUEKIRNF,BUEKIRNF,BUENA VISTA PK & KIRK AVE NB,,36.199636,-86.825523,0,,,,,1
BUEWHASN,BUEWHASN,BUENA VISTA PIKE & W HAMILTON AVE,BUENA VISTA PIKE & W. HAMILTON,36.218154,-86.820468,0,,,,,
MLK10AEN,MLK10AEN,DR MARTIN LUTHER KING JR BLVD  & 10TH AVE N EB,395 10TH AVE & RAMP,36.163234,-86.787821,0,,,,,1
CXONGULC,CXONGULC,11TH AVE / N GULCH STATION OUTBOUND,CHARLOTTE & 11TH AV,36.16232,-86.790405,,,,,,1
CXOCENTE,CXOCENTE,23RD AVE / CENTENNIAL STATION OUTBOUND,2274 CHARLOTTE AVE & 23RD AVE,36.155939,-86.809465,,,,,,1
CHA26AWN,CHA26AWN,CHARLOTTE AVE & 26TH AVE N WB,CHARLOTTE AV & 26TH AV N,36.154803,-86.814662,,,,,,0
CHA26AEF,CHA26AEF,CHARLOTTE AVE & 26TH AVE F EB,CHARLOTTE AV & 26TH AV N,36.154489,-86.81517,,,,,,
CXO2831,CXO2831,28TH/31ST AVE CONNECTOR STATION OUTBOUND,CHARLOTTE AV & 28TH AV N,36.154039,-86.818055,,,,,,1
CXI2831,CXI2831,28TH/31ST AVE CONNECTOR STATION INBOUND,CHARLOTTE AV & 28TH AV N,36.15387,-86.818414,,,,,,1
CHA33AEN,CHA33AEN,CHARLOTTE AVE & 33RD AVE N,US HWY 70 & 33RD AVE N,36.152788,-86.823741,,,,,,
CXOSYLHE,CXOSYLHE,37TH AVE/SYLVAN HEIGHTS STATION OUTBOUND,3572 CHARLOTTE AVE & 37TH AVE,36.152821,-86.828059,,,,,,1
CXISYLHE,CXISYLHE,37TH AVE/SYLVAN HEIGHTS STATION INBOUND,CHARLOTTE AV & 37TH AV N,36.152664,-86.827657,,,,,,1
CHA39AWN,CHA39AWN,CHARLOTTE AVE & 39TH AVE N WB,CHARLOTTE & 39 AVE,36.152592,-86.833179,,,,,,
CHA39AEF,CHA39AEF,CHARLOTTE AVE & 39TH AVE N EB,CHARLOTTE & 39 AVE,36.152461,-86.832264,,,,,,
CXOSYLPA,CXOSYLPA,42ND AVE/SYLVAN PARK STATION OUTBOUND,4180 CHARLOTTE AVE & 42ND AVE,36.152476,-86.836853,,,,,,1
CXISYLPA,CXISYLPA,42ND AVE/SYLVAN PARK STATION INBOUND,CHARLOTTE & 42 AVE,36.152293,-86.837289,,,,,,1
CXIRICHL,CXIRICHL,46TH AVE/RICHLAND PARK STATION INBOUND,4645 CHARLOTTE AVE & 46TH AVE,36.152077,-86.842746,,,,,,1
CHA51AEN,CHA51AEN,CHARLOTTE AVE & 51ST AVE N EB,5116 CHARLOTTE AVE & 51ST AVE,36.151892,-86.848786,,,,,,0
CXI53AVE,CXI53AVE,53RD AVE STATION INBOUND,5212 CHARLOTTE AVE & 53RD AVE,36.151829,-86.850579,,,,,,1
MLK7AVEN,MLK7AVEN,DR MARTIN LUTHER KING JR BLVD & 7TH AVE N EB,CHARLOTTE AV & 7TH AVE N,36.164714,-86.784416,0,,,,,0
MLK7AVWN,MLK7AVWN,DR MARTIN LUTHER KING JR BLVD & 7TH AVE N WB,CHARLOTTE AVE & 7TH AVE N,36.165,-86.78406,0,,,,,0
CXOAMERI,CXOAMERI,AMERICAN STATION OUTBOUND,CHARLOTTE & AMERICAN,36.145052,-86.872141,,,,,,1
CXIAMERI,CXIAMERI,AMERICAN STATION INBOUND,6315 CHARLOTTE PIKE,36.144947,-86.871962,,,,,,1
CXOANNEX,CXOANNEX,ANNEX STATION OUTBOUND,6606 CHARLOTTE PIKE & ANNEX AVE,36.138948,-86.880902,,,,,,1
CHAEASWN,CHAEASWN,CHARLOTTE AVE & EASTBORO DR WB,CHARLOTTE PK & BALMY AV,36.148265,-86.867331,,,,,,
CHABALEF,CHABALEF,CHARLOTTE AVE & BALMY AVE EB,,36.148269,-86.866926,,,,,,
CXODVDSN,CXODVDSN,DAVIDSON STATION OUTBOUND,6988 CHARLOTTE PIKE & DAVIDSON DR,36.129661,-86.903165,,,,,,1
CXIDVDSN,CXIDVDSN,DAVIDSON STATION INBOUND,6951 CHARLOTTE PIKE,36.12936,-86.903625,,,,,,1
CHALELWM,CHALELWM,CHARLOTTE PIKE & LELLYETT ST WB,CHARLOTTE PK & LELLYETT ST,36.149098,-86.863361,,,,,,
CXOWTBRG,CXOWTBRG,WHITE BRIDGE STATION OUTBOUND,5626 CHARLOTTE PIKE & RAMP,36.150052,-86.858652,,,,,,1
CXIWTBRG,CXIWTBRG,WHITE BRIDGE STATION INBOUND,,36.149997,-86.858261,,,,,,
CHE2AWF,CHE2AWF,CHESTNUT ST & 2ND AVE S WB,CHESTNUT ST & UNKNOWN AL,36.145741,-86.764971,,,0,,,0
CHE4AVWF,CHE4AVWF,CHESTNUT ST & 4TH AVE S WB,402 CHESTNUT ST & 4TH AVE S,36.144899,-86.766931,0,,,,,1
CHEAPANN,CHEAPANN,CHEYENNE BLVD & APACHE LN,CHEYENNE BV & APACHE LN,36.244212,-86.670689,,,,,,
CHECCRNN,CHECCRNN,CHEYENNE BLVD & CHEYENNE CR,CHEYENNE CR & CHEYENNE BV,36.252211,-86.671039,,,,,,
CHECCTNN,CHECCTNN,CHEYENNE BLVD & CHEYENNE CT,CHEYENNE BV & CHEYENNE CT,36.246647,-86.669281,,,,,,
CHEFORWN,CHEFORWN,CHESTNUT ST & FORT NEGLEY BLVD WB,CHESTNUT ST & FORT NEGLEY BV,36.142249,-86.775425,,,,,,0
CHEMAREN,CHEMAREN,CHESTNUT ST & MARTIN ST EB,,36.143403,-86.769849,,,,,,
CHERAISN,CHERAISN,CHESAPEAKE DR & RAINWOOD DR SB,CHESAPEAKE DR & RAIN WOOD,36.24323,-86.767688,,,,,,
CHEWOOSN,CHEWOOSN,CHESAPEAKE DR & WOOD TRL SB,CHESAPEAKE DR & WOOD TRAIL,36.244805,-86.767814,,,,,,
CLA24ANN,CLA24ANN,CLARKSVILLE PIKE & 24TH AVE N NB,CLARKSVILLE PK & 24TH AV N,36.184747,-86.815544,,,,,,
CLASHASF,CLASHASF,CLARKSVILLE PIKE & S HAMILTON RD SB,CLARKSVILLE PK & BUENA VISTA PK,36.193064,-86.830338,,,,,,
CLACLISN,CLACLISN,CLARKSVILLE PIKE & CLIFF DR SB,CLARKSVILLE PK & CLIFF DR,36.192341,-86.829181,,,,,,0
CLACLINN,CLACLINN,CLARKSVILLE PIKE & CLIFF DR NB,2890 CLARKSVILLE PIKE,36.192195,-86.828462,,,,,,0
CLAROSNN,CLAROSNN,CLARKSVILLE PIKE & ROSA PARKS BLVD NB,CLARKSVILLE PK & ED TEMPLE BV,36.187826,-86.821122,0,,,,,0
CLAEDSM,CLAEDSM,CLARKSVILLE PIKE & ED TEMPLE BLVD S,,36.187276,-86.820545,,,,,,
CLAEDTSN,CLAEDTSN,CLARKSVILLE PIKE & ED TEMPLE BLVD S,CLARKSVILLE PK & ED TEMPLE BV,36.188724,-86.82301,0,,,,,
CLE3RDEN,CLE3RDEN,CLEVELAND ST & N 3RD ST EB,,36.186902,-86.766241,,,,,,
CLEMERWM,CLEMERWM,CLEVELAND ST & MERIDIAN ST WB,,36.187051,-86.76733,,,,,,0
CLI34AWF,CLI34AWF,CLIFTON AVE & 34TH AVE N WB,CLIFTON & 34 AVE,36.158465,-86.827484,,,,,,
CLI40AEF,CLI40AEF,CLIFTON AVE & 40TH AVE N EB,CLIFTON & 40 AVE,36.157053,-86.834036,,,,,,1
CLIBUENM,CLIBUENM,CLIFF DR & SMITH TOWERS NB,CLIFF & BUENA VISTA,36.195962,-86.826163,0,,,,,
COLDAVPR,COLDAVPR,COLEY DAVIS RD SHELTER PARK AND RIDE,EXIT 196 & RAMP,36.079608,-86.955657,0,,,,,0
COUDOAWN,COUDOAWN,COUNTY HOSPITAL RD & DOAK AVE WB,,36.19142,-86.83582,,,,,,0
COUHYDWF,COUHYDWF,COUNTY HOSPITAL RD & HYDES FERRY RD WB,1691 COUNTY HOSPITAL RD,36.189381,-86.837988,0,,,,,0
COUPANWN,COUPANWN,COUNTY HOSPITAL RD & PANORAMA DR WB,,36.18444,-86.843029,,,,,,
COUPANEN,COUPANEN,COUNTY HOSPITAL RD & PANORAMA DR,,36.18413,-86.843152,,,,,,0
COUPANEM,COUPANEM,COUNTY HOSPITAL RD & PANORAMA DR EB,COUNTY HOSPITAL & HYDES FERRY DR,36.187716,-86.839444,,,,,,0
CREGREWN,CREGREWN,CRESTMOOR RD & GREEN HILLS VILLAGE DR WB,2281 CRESTMOOR RD & GREEN HILLS VLG,36.109519,-86.814508,0,,,,,0
BUC10AWM,BUC10AWM,BUCHANAN ST & 10TH AVE N WB,BUCHANAN ST & 10TH AV N,36.180536,-86.802572,,,,,,
DEL26AWN,DEL26AWN,DELK AVE & 26TH AVE N WB,,36.178443,-86.819095,0,,,,,
DICBELSS,DICBELSS,DICKERSON PIKE & BELLSHIRE DR SB,DICKERSON PK & BELLSHIRE DR,36.259517,-86.757895,,,,,,0
DICBENNF,DICBENNF,DICKERSON PIKE & BEN ALLEN RD NB,3028 DICKERSON PIKE,36.225551,-86.760196,0,,,,,0
DICCLESN,DICCLESN,N DICKERSON PIKE & CLEVELAND ST SB,886 DICKERSON PIKE & CLEVELAND ST,36.187567,-86.773431,0,,,,,0
DICGORSF,DICGORSF,DICKERSON PIKE & GORDON TER SB,DICKERSON PK & GORDON TR,36.212387,-86.765054,,,,,,
DICGRISN,DICGRISN,DICKERSON PIKE & GRIZZARD AVE SB,DICKERSON PK & GRIZZARD AVE,36.208326,-86.767458,,,,,,0
DICDELNF,DICDELNF,DICKERSON PIKE & DELLWAY VILLA DR N,DICKERSON PK & DELLWAY VILLA RD,36.213799,-86.764334,,,,,,
DICBENNM,DICBENNM,DICKERSON PIKE & BEN ALLEN NB,DICKERSON PK & EWING DR,36.227385,-86.759588,0,,,,,0
DICTRINM,DICTRINM,DICKERSON PIKE & E TRINITY LN NB,DICKERSON PK & E TRINITY LN,36.204013,-86.768942,,,,,,
DICMARNM,DICMARNM,DICKERSON PIKE & MARIE MB,DICKERSON PK & FERN AV,36.198447,-86.770684,,,,,,
DICALHSF,DICALHSF,DICKERSON PIKE & ALHAMBRA CIR SB,DICKERSON PK & ALHAMBRA CR,36.219365,-86.762615,,,,,,
DICDONNF,DICDONNF,DICKERSON PIKE & DONALD ST NB,US HWY 31W & DICKERSON PIKE,36.211858,-86.765017,,,,,,
DICDOUNN,DICDOUNN,DICKERSON PIKE & DOUGLAS AVE NB,DICKERSON PK & DOUGLAS AV,36.194021,-86.772334,,,,,,0
DICDUESF,DICDUESF,DICKERSON PIKE & DUE WEST AVE SB,DICKERSON PK & DUE WEST AVE,36.255715,-86.757984,,,,,,
DICTRINN,DICTRINN,DICKERSON PIKE & E TRINTY LN NB,DICKERSON PK & E TRINITY LN,36.205694,-86.768557,,,,,,
DICEVANN,DICEVANN,DICKERSON PIKE & EVANSTON AVE NB,DICKERSON PK & EVANSTON AV,36.189985,-86.772877,,,,,,
DICEWISF,DICEWISF,DICKERSON PIKE & EWING DR SB,DICKERSON PK & EWING DR,36.228732,-86.759498,,,,,,0
DICGATNF,DICGATNF,DICKERSON PIKE & GATEWOOD AVE NB,DICKERSON PK & GATEWOOD AV,36.20058,-86.769664,,,,,,0
DICGATSN,DICGATSN,DICKERSON PIKE & GATEWOOD AVE SB,,36.200189,-86.770043,,,,,,
DICGRANN,DICGRANN,DICKERSON PIKE & GRACE ST NB,STATE HWY 11 & DICKERSON PIKE,36.183055,-86.773789,,,,,,0
DICGRASN,DICGRASN,N DICKERSON PIKE & GRACE ST SB,750 DICKERSON PIKE,36.18378,-86.773882,,,,,,0
DICHANNN,DICHANNN,N DICKERSON PIKE & HANCOCK ST NB,N DICKERSON PK & HANCOCK ST,36.184323,-86.773647,,,,,,
DICLIGSF,DICLIGSF,DICKERSON PIKE & LIGON AVE SB,,36.194193,-86.772489,,,,,,0
DICLORNF,DICLORNF,DICKERSON PIKE & LORRAINE AVE NB,DICKERSON PK & LORRAINE AV,36.217862,-86.762922,,,,,,0
DICLUCNF,DICLUCNF,DICKERSON PIKE & LUCILE ST NB,DICKERSON PK & LUCILE ST,36.196843,-86.771548,,,,,,0
DICLUCSN,DICLUCSN,DICKERSON PIKE & LUCILE ST SB,DICKERSON PK & LUCILE ST,36.196528,-86.771895,,,,,,
DICMULSN,DICMULSN,DICKERSON PIKE & MULBERRY DOWNS CIR,DICKERSON PK & MULBERRY DOWNS CR,36.251637,-86.757526,,,,,,
DICBELSN,DICBELSN,DICKERSON PK & BELL GRIMES LN,,36.268491,-86.756147,,,,,,
DICPINNN,DICPINNN,DICKERSON PIKE & PINE RIDGE DR NB,DICKERSON PK & PINE RIDGE DR,36.22127,-86.761726,,,,,,
DICPINSN,DICPINSN,DICKERSON PIKE & PINE RIDGE DR SB,DICKERSON PK & PINE RIDGE DR,36.221328,-86.761926,,,,,,
DICQUENN,DICQUENN,DICKERSON PIKE & QUEEN AVE NB,DICKERSON PK & QUEEN AV,36.208232,-86.767299,,,,,,
DICRICNN,DICRICNN,DICKERSON PIKE & RICHARDSON AVE NB,DICKERSON PK & RICHARDSON AV,36.191684,-86.772668,,,,,,
DICRICSF,DICRICSF,DICKERSON PIKE & RICHARDSON AVE SB,1116 DICKERSON PIKE & RICHARDSON AVE,36.191513,-86.772859,0,,,,,1
DICDELNN,DICDELNN,DICKERSON & DELLWAY DR NB,STATE HWY 11 & DICKERSON PIKE,36.214963,-86.763917,,,,,,
DICCLENN,DICCLENN,N DICKERSON PIKE & CLEVELAND ST NB,890 DICKERSON PIKE & CLEVELAND ST,36.187195,-86.773301,,,,,,0
DICSUNNF,DICSUNNF,DICKERSON PIKE & SUNSET CR NB,2958 DICKERSON PIKE & SUNSET DR,36.223889,-86.760818,,,,,,0
DICSUNSF,DICSUNSF,DICKERSON PIKE & SUNSET CR SB,2942 DICKERSON PIKE & SUNSET DR,36.223271,-86.76125,0,,,,,0
DICTUCSN,DICTUCSN,DICKERSON PK & TUCKAHOE DR SB,,36.261558,-86.757642,,,,,,0
DICWTRSF,DICWTRSF,DICKERSON PIKE & W TRINITY LN SB,DICKERSON & W TRINITY LANE,36.204256,-86.769112,,,,,,
DOMFREWN,DOMFREWN,DOMINICAN DR & FRENCH LANDING DR WB,,36.188503,-86.7964,,,,,,
DOMFREEN,DOMFREEN,DOMINICAN DR & FRENCH LANDING DR EB,3RD AVE N & 4TH AVE N,36.188396,-86.796012,,,,,,0
DOMMETEN,DOMMETEN,DOMINICAN DR & METRO CENTER BLVD EB,,36.187775,-86.798861,,,,,,
DONSHASM,DONSHASM,DONELSON PKWY & SHACKLETT DR SB,,36.143629,-86.666815,,,,,,
DONROYNN,DONROYNN,DONELSON PKWY & ROYAL PKWY NB,DONELSON PIKE & SHACKLETT DR,36.145763,-86.666486,,,,,,
DOVMOOWN,DOVMOOWN,DOVERSIDE DR & MOOREWOOD DR WB,3303 DOVERSIDE DR & MOOREWOOD DR,36.240405,-86.772814,,,,,,0
DRDHERSN,DRDHERSN,DR DB TODD JR BLVD & HERMOSA ST SB,DR D B TODD JR & HERMOSA,36.164472,-86.804654,,,,,,0
DRDJOJNN,DRDJOJNN,DR DB TODD JR BLVD & JO JOHNSTON AVE NB,DR D B TODD JR BV & JO JOHNSTON,36.160454,-86.801749,,,,,,
DRDPEANF,DRDPEANF,DR DB TODD JR BLVD & PEARL ST NB,18TH AVE N & 18TH AVE,36.159231,-86.800963,,,,,,0
DOVEAGWN,DOVEAGWN,DOVERSIDE DR & EAGLEWOOD LN WB,,36.241297,-86.76779,,,,,,0
EASCHAEN,EASCHAEN,EASTLAND AVE & CHAPEL AVE EB,1812 EASTLAND AVE & CHAPEL AVE,36.182615,-86.735933,,,,,,
EASBENWN,EASBENWN,EASTLAND AVE & BENSON ST WB,1705 EASTLAND AVE & 17TH ST N,36.182943,-86.738759,,,,,,0
EASCHAWN,EASCHAWN,EASTLAND AVE & CHAPEL AVE WB,1907 EASTLAND AVE & CHAPEL AVE,36.182712,-86.735606,,,,,,
EASSETEN,EASSETEN,EASTLAND AVE & SETLIFF PL EB,,36.182778,-86.738046,,,,,,
EDG12AWN,EDG12AWN,EDGE HILL AVE & 12TH AVE S WB,EDGEHILL AVE & ALBAR DR,36.142776,-86.786695,,,,,,
EDG15AEN,EDG15AEN,EDGEHILL AVE & 15TH AVE S EB,,36.14307,-86.790822,,,,,,0
EDG19AWN,EDG19AWN,EDGEHILL AVE & 19TH AVE S WB,1886 EDGEHILL AVE & 19TH AVE,36.143915,-86.797502,,,,,,0
CHE8AWN,CHE8AWN,CHESTNUT ST & 8TH AVE S WB,CHESTNUT ST & 8TH AV S,36.141776,-86.778352,,,,,,0
EDG9AWN,EDG9AWN,EDGE HILL AVE & 9TH AVE S WB,,36.141994,-86.78077,0,,,,,
EDG17AWN,EDG17AWN,EDGEHILL AVE & 17TH AVE S WB,EDGEHILL AV & 17TH AV S,36.143534,-86.79422,,,,,,
EDGPEDWF,EDGPEDWF,EDGE HILL AVE & PEDWALK WB,,36.14195,-86.783867,,,,,,
ACOELMSM,ACOELMSM,ACORN DR & ELM HILL PK SB,,36.15053,-86.70028,,,,,,
ELMWANEM,ELMWANEM,ELM HILL PIKE & WANDA DR EB,ELM HILL PK & SANBORN DR,36.1506,-86.693653,,,,,,0
ELMAPPNF,ELMAPPNF,ELM HILL PIKE & APPLETON DR NB,1912 ELM HILL PIKE & APPLETON DR,36.14918,-86.702937,,,,,,0
ELMATRWM,ELMATRWM,ELM HILL PIKE & ATRIUM WAY WB,,36.153276,-86.688346,,,,,,0
ELMNELWN,ELMNELWN,ELM HILL PIKE & NELSON PL WB,ELM HILL PK & NELSON PL,36.149113,-86.667591,,,,,,0
ELMROYWN,ELMROYWN,ELM HILL PIKE & ROYAL PKWY WB,ELM HILL PK & ROYAL PW,36.151738,-86.676829,,,,,,
ELMERMEN,ELMERMEN,ELM HILL PIKE & ERMAC DR EB,ELM HILL PK & ERMAC DR,36.153273,-86.686932,,,,,,0
MURLESWF,MURLESWF,MURFREESBORO PIKE & LESTER AVE WB,344 MURFREESBORO PIKE,36.145782,-86.752927,0,,,,,1
MASMAPEN,MASMAPEN,MASSMAN DR & MAPLE LEAF DR EB,MASSMAN DR & MAPLELEAF DR,36.15053,-86.709321,,,,,,
ELMAIRWM,ELMAIRWM,ELM HILL PIKE & AIR LANE DR WB,ELM HILL PK & AIR LANE DR,36.146839,-86.704906,,,,,,
ELMMASWM,ELMMASWM,ELM HILL PIKE & MASSMAN DR WB,,36.144372,-86.71576,,,,,,
ELMROYEN,ELMROYEN,ELM HILL PIKE & ROYAL PKWY EB,,36.151668,-86.677224,,,,,,0
ELMSPEWN,ELMSPEWN,ELM HILL PIKE & SPENCE LN WB,,36.144052,-86.72106,,,,,,
ELMSPEWF,ELMSPEWF,ELM HILL PIKE & SPENCE LN WB,1442 ELM HILL PIKE,36.144025,-86.723261,,,,,,0
ELMSPEEN,ELMSPEEN,ELM HILL PIKE & SPENCE LN EB,1442 ELM HILL PIKE,36.143867,-86.723189,,,,,,0
ELMSPEEM,ELMSPEEM,ELM HILL PIKE  & SPENCE LN EB,ELM HILL PK & SPENCE LN,36.143929,-86.720575,,,,,,0
ELMPPOWM,ELMPPOWM,ELM HILL PIKE & P POOL AVE WB,ELM HILL PK & P POOL AV,36.14442,-86.741041,,,,,,
ELMTWIEN,ELMTWIEN,ELM HILL PIKE & TWIN ELMS CT EB,ELM HILL PK & TWIN ELMS CT,36.144053,-86.738002,,,,,,
ELMARLWM,ELMARLWM,ELM HILL PIKE & ARLINGTON AVE WB,1188 ELM HILL PIKE,36.143775,-86.733183,,,,,,0
ELMWANWN,ELMWANWN,ELM HILL PIKE & WANDA DR WB,ELM HILL PK & WANDA DR,36.150495,-86.696659,,,,,,
EWIBRIWN,EWIBRIWN,EWING DR & BRICK CHURCH PIKE WB,,36.231512,-86.78049,0,,,,,0
EWIEWIWN,EWIEWIWN,EWING DR & EWING LN WB,EWING DR & EWING LANE,36.231059,-86.7766,,,,,,
FAT18SEN,FAT18SEN,FATHERLAND ST & S 18TH ST EB,,36.17301,-86.73886,,,,,,
CHEFOREM,CHEFOREM,CHESTNUT ST & FORT NEGLEY BLVD EB,,36.142159,-86.774589,,,,,,0
FRAHORNN,FRAHORNN,FRANKLIN PIKE & HORNER AVE NB,FRANKLIN PK & HORNER AV,36.12221,-86.775663,,,,,,0
FRABRANF,FRABRANF,FRANKLIN PIKE & BRADFORD AVE NB,8TH AVE S & BRADFORD AVE,36.128846,-86.777885,,,,,,0
FRACRANF,FRACRANF,FRANKLIN PIKE & CRAIGHEAD ST NB,,36.126558,-86.777093,,,,,,0
FRAINVNF,FRAINVNF,FRANKLIN PIKE & INVERNESS AVE NB,US HWY 31 & FRANKLIN PIKE,36.125078,-86.776593,,,,,,
FRAINVSF,FRAINVSF,FRANKLIN PIKE & INVERNESS AVE SB,US HWY 31 & FRANKLIN PIKE,36.124631,-86.776671,,,,,,
GALALTNF,GALALTNF,N GALLATIN PIKE & ALTA LOMA RD NB,1619 GALLATIN PIKE N & ALTA LOMA RD,36.293418,-86.702038,,,,,,0
GALALLSN,GALALLSN,N GALLATIN PK & ALTA LOMA RD SB,1611 GALLATIN PIKE N & ALTA LOMA RD,36.293366,-86.702361,,,,,,0
GALARDNN,GALARDNN,N GALLATIN PIKE & ARDEE AVE NB,GALLATIN PK & ARDEE AV,36.219487,-86.727398,,,,,,0
GALBERNN,GALBERNN,S GALLATIN PIKE & BERKLEY DR NB,S GALLATIN PK & BERKLEY DR,36.24635,-86.721253,,,,,,0
GALBERWF,GALBERWF,S GALLATIN PIKE & BERKLEY DR SB,1221 GALLATIN PIKE S,36.246271,-86.72157,,,,,,0
GALBRONN,GALBRONN,S GALLATIN PIKE & BROADMOOR DR NB,,36.229022,-86.725043,,,,,,
GALBURNN,GALBURNN,GALLATIN PK & BURCHWOOD AV,,36.20057,-86.740034,,,,,,0
GALBURSN,GALBURSN,GALLATIN PK & BURCHWOOD AV,,36.201101,-86.739939,0,,,,,
GALCURSN,GALCURSN,GALLATIN PIKE & CURDWOOD BLVD SB,,36.219947,-86.72741,,,,,,0
GALEMMNN,GALEMMNN,GALLATIN PIKE & EMMITT AVE NB,,36.252894,-86.71689,,,,,,0
GALSTANF,GALSTANF,GALLATIN PIKE & STRATFORD AVE NB,3828 GALLATIN PIKE & STRATFORD AVE,36.214783,-86.730154,,,,,,0
GALGRENN,GALGRENN,GALLATIN PIKE & GREENWOOD AVE NB,GALLATIN AV & W GREENWOOD AV,36.190647,-86.745313,,,,,,1
GALIVENN,GALIVENN,GALLATIN PIKE & IVERSON AVE NB,GALLATIN PK & MAYNOR AV,36.207698,-86.735472,,,,,,
GALEMMSN,GALEMMSN,S GALLATIN PIKE & EMMITT AVE SB,889 GALLATIN PIKE S & EMMITT AVE,36.253528,-86.716746,,,,,,0
GALMAPNF,GALMAPNF,GALLATIN PIKE & MAPLE ST NB,169 GALLATIN PIKE S & MAPLE ST,36.261602,-86.7123,0,,,,,0
GALMAYSN,GALMAYSN,GALLATIN PIKE & MAYNOR AVE SB,,36.207107,-86.736105,,,,,,0
GALEDENF,GALEDENF,GALLATIN PIKE & EDENWOLD RD NB,1507 GALLATIN PIKE N,36.287243,-86.705075,,,,,,0
GALMONSN,GALMONSN,N GALLATIN PIKE & MONTICELLO AVE SB,1503 GALLATIN PIKE N & EDENWOLD RD,36.287054,-86.705431,0,,,,,1
GALOLDSN,GALOLDSN,N GALLATIN PIKE & OLD HICKORY BLVD SB,N GALLATIN PK & OLD HICKORY BV,36.264437,-86.7115,0,,,,,1
GALANDNF,GALANDNF,N GALLATIN PIKE & ANDERSON LN NB,N GALLATIN PK,36.273885,-86.709877,,,,,,0
GALGRESF,GALGRESF,GALLATIN AVE & GREENWOOD AVE SB,217 CHEROKEE RD,36.1902,-86.74568,,,,,,0
GALGILSF,GALGILSF,GALLATIN PIKE & GILOCK ST SB,1091 GILLOCK ST & GALLATIN PIKE,36.214284,-86.730804,,,,,,0
GALCONNN,GALCONNN,GALLATIN PIKE & CONFERENCE DR NB,N GALLATIN PK & TWIN HILLS DR,36.302356,-86.692218,0,,,,,
GRABATSN,GRABATSN,GRANNY WHITE PIKE & BATTLEFIELD DR  SB,GRANNY WHITE PK & BATTLEFIELD DR,36.115327,-86.792019,0,,,,,
GRABATNN,GRABATNN,GRANNY WHITE PIKE & BATTLEFIELD DR NB,GRANNY WHITE PK & BATTLEFIELD DR,36.115166,-86.79194,0,,,,,
GRADRANN,GRADRANN,GRANNY WHITE PIKE & DRAUGHON AVE NB,GRANNY WHITE PIKE & 12TH AVE S,36.110228,-86.792679,,,,,,
GRADRASN,GRADRASN,GRANNY WHITE PIKE & DRAUGHON AVE SB,GRANNY WHITE PK & DRAUGHON AV,36.110451,-86.792803,,,,,,
GRAMORSM,GRAMORSM,GRANNY WHITE PIKE & MORROW AVE SB,GRANNY WHITE PK & MORROW AV,36.104798,-86.796221,,,,,,
GRANALNN,GRANALNN,GRANNY WHITE PIKE & NOELTON AVE NB,GRANNY WHITE PK & NOELTON AV,36.112817,-86.792321,,,,,,
GRANOESN,GRANOESN,GRANNY WHITE PIKE & NOELTON AVE SB,GRANNY WHITE PK & NOELTON AV,36.112987,-86.792433,,,,,,0
GREATHEF,GREATHEF,GREAT CIRCLE RD & ATHENS WAY EB,GREAT CIRCLE RD & CONNECTING ROAD,36.198278,-86.795193,,,,,,
GREATHEM,GREATHEM,GREAT CIRCLE RD & ATHENS WAY EB,GREAT CIRCLE & VANTAGE WY,36.196325,-86.792789,,,,,,
GREVANEN,GREVANEN,GREAT CIRCLE RD & VANTAGE WAY EB,,36.193121,-86.791202,,,0,,,0
HAR10AWN,HAR10AWN,HARRISON ST & 10TH AVE N WB,HARRISON & 10 AVE,36.167302,-86.791287,,,,,,
HAR8AWF,HAR8AWF,HARRISON ST & 8TH AVE N WB,,36.168367,-86.788962,,,,,,
HARBOSWM,HARBOSWM,HARDING PIKE & BOSLEY SPRINGS RD WB,,36.126788,-86.845188,,,,,,0
HARLEANN,HARLEANN,HARDING PIKE & LEAKE AVE NB,HARDING PK & 7TH AV N,36.105156,-86.868423,,,,,,
HARHAREN,HARHAREN,HARDING PIKE & HARDING PL EB,HARDING RD & HARDING PLACE,36.101951,-86.870292,,,,,,0
HARHARWN,HARHARWN,HARDING PL & HARDING MALL WB,,36.080547,-86.722833,,,,,,
HARTANWF,HARTANWF,HARDING PL & TANGLEWOOD CT WB,HARDING PL & HUMBER DR,36.081633,-86.714151,,,,,,1
HARJONWN,HARJONWN,HARDING PIKE & JONQUIL DR WB,,36.080494,-86.717779,,,,,,0
HARPOSSN,HARPOSSN,HARDING PIKE & POST RD SB,HARDING & LEAKE AVE,36.104123,-86.869403,,,,,,
HARBELNN,HARBELNN,HARDING PIKE & BELLE MEADE BLVD NB,4806 HARDING PIKE & FRANSWORTH DR,36.119246,-86.855264,,,,,,0
HARHILLW,HARHILLW,HARDING PIKE & HILLWOOD BLVD WB,HARDING PK & GARDNER DR,36.121384,-86.852753,,,,,,2
HARPAGSN,HARPAGSN,HARDING PIKE & PAGE RD SB,,36.100465,-86.871159,,,,,,0
HARTAMWF,HARTAMWF,HARDING PL & TAMPA DR WB,,36.08259,-86.711049,,,,,,1
HARVINWN,HARVINWN,HARDING PIKE & VINE CT WB,HARDING PK & VINE CT,36.129868,-86.839437,,,,,,
HARVINEN,HARVINEN,HARDING PIKE & VINE CT EB,HARDING PK & VINE CT,36.129538,-86.839827,,,,,,
HARWHBWM,HARWHBWM,HARDING PIKE & WHITE BRIDGE WB,4628 HARDING PIKE,36.12324,-86.850219,,,,,,0
HARBOSWN,HARBOSWN,HARDING PIKE & BOSLEY SPRINGS RD WB,HARDING & WOODLAWN,36.127696,-86.843826,,,,,,
HER11AWN,HER11AWN,HERMAN ST & 11TH AVE N WB,HERMAN & 11 AVE,36.168145,-86.794374,,,,,,
HER14AEN,HER14AEN,HERMAN ST & 14TH AVE N EB,HERMAN ST & 14TH AV N,36.166205,-86.798497,,,,,,
HER24TWN,HER24TWN,HERMAN ST & 24TH AVE N WB,HERMAN & 24 AVE,36.162189,-86.81178,,,,,,
HER25AWN,HER25AWN,HERMAN ST & 25TH AVE N WB,HERMAN & 25 AVE,36.162366,-86.814559,,,,,,
HER25AEN,HER25AEN,HERMAN ST & 25TH AVE N EB,HERMAN ST & 25TH AV N,36.162273,-86.814615,,,,,,1
JAC17AEN,JAC17AEN,JACKSON ST & 17TH AVE N EB,JACKSON ST & 17TH AV N,36.166302,-86.803747,,,,,,
HERDRIWN,HERDRIWN,HERMITAGE AVE & DRIFTWOOD ST WB,US HWY 70 & DRIFTWOOD ST,36.154836,-86.758268,,,,,,0
HERDRISF,HERDRISF,HERMITAGE AVE & DRIFTWOOD ST SB,,36.154664,-86.758368,,,,,,
HERLINWF,HERLINWF,HERMITAGE AVE & LINDSLEY AVE WB,,36.15508,-86.763995,,,,,,0
HEREDGEN,HEREDGEN,HERMITAGE AVE & EDGAR ST EB,HERMITAGE AV & LITTLE GREEN ST,36.153225,-86.749969,0,,,,,
HERMIDSF,HERMIDSF,HERMITAGE AVE & MIDDLETON ST SB,,36.155744,-86.766723,0,,,,,
HERLEAWN,HERLEAWN,HERMITAGE AVE & LEA AVE WB,,36.156648,-86.76851,,,,,,
HERWARWN,HERWARWN,HERMAN ST & WARREN ST WB,,36.168499,-86.793355,,,,,,
HICOCANN,HICOCANN,HICKORY PLAZA DR & OCALA DR NB,,36.050659,-86.716055,,,,,,0
HILCRESN,HILCRESN,HILLSBORO PIKE & CRESTMOOR RD SB,3757 HILLSBORO PIKE,36.110036,-86.811595,0,,,,,0
HILGOLSF,HILGOLSF,HILLSBORO PIKE & GOLF CLUB LN SB,3225 HILLSBORO PIKE & GOLF CLUB LN,36.117639,-86.810283,,,,,,0
HILGOLNF,HILGOLNF,HILLSBORO PIKE & GOLF CLUB LN NB,HILLSBORO PK & GOLF CLUB LN,36.117949,-86.809911,,,,,,0
HILGRASN,HILGRASN,HILLSBORO PIKE & GRAYBAR LN SB,,36.111281,-86.811431,,,,,,
HILGRANN,HILGRANN,HILLSBORO PIKE & GRAYBAR LN NB,,36.111099,-86.811197,,,,,,0
HILSHASN,HILSHASN,HILLSBORO PIKE & SHARONDALE DR SB,,36.120733,-86.808043,,,,,,0
21AWOONF,21AWOONF,21ST AVE S & WOODLAWN DR NB,HILLSBORO & WOODLAWN,36.125435,-86.805294,,,,,,0
HILWOOSN,HILWOOSN,HILLSBORO PIKE & WOODMONT BLVD SB,,36.114169,-86.811039,,,,,,
HILWOONM,HILWOONM,HILLSBORO PIKE & WOODMONT BLVD NB,,36.11461,-86.810695,,,,,,0
H70BAPWM,H70BAPWM,HWY 70 S & BAPTIST BELLEVUE MEDICAL WB,HWY 70 S & BAPTIST BELLEVUE MEDICAL CENTER,36.078807,-86.951223,,,,,,0
HWYSAWWM,HWYSAWWM,HWY 70 S & SAWYER BROWN WB,HWY 70 S & BELLEVUE CENTER,36.077742,-86.947539,,,,,,
H70CARSN,H70CARSN,HWY 70 S & CARNAVON PKWY WB,,36.089861,-86.890964,,,,,,
H70COLEF,H70COLEF,HWY 70 S & COLEY DAVIS RD EB,,36.078866,-86.952313,,,,,,0
H70COLEM,H70COLEM,HWY 70 S & COLICE JEANNE RD EB,HWY 70 S & DOLCE JEANNE,36.073839,-86.934652,,,,,,0
H70BROEF,H70BROEF,HWY 70 S & BROOKMONT TR EB,,36.080517,-86.900418,,,,,,
H70ERIEN,H70ERIEN,HWY 70 S & ERIN LN EB,,36.078285,-86.909009,,,,,,1
H70ERIWF,H70ERIWF,HWY 70 S & ERIN LN WB,RAMP & USHY 70S,36.078448,-86.909294,,,,,,0
H70HICEN,H70HICEN,HWY 70 S & HICKS LN EB,,36.073828,-86.926547,,,,,,0
H70HICWN,H70HICWN,HWY 70 S & HICKS RD WB,STATE HWY 1 & MEMPHIS BRISTOL HWY,36.074021,-86.92593,,,,,,
STPLESPR,STPLESPR,HWY 70 S STAPLES PARK AND RIDE EB,HWY 70 S & MALL ENTRANCE,36.077513,-86.947762,0,,,,,
H70OLDEF,H70OLDEF,HWY 70 S & OLD HICKORY BLVD EB,7087 USHY 70S,36.074666,-86.91989,,,,,,0
H70OLDWF,H70OLDWF,HWY 70 S & OLD HARDING PIKE WB,70 S & OLD HARDING PK,36.074125,-86.923236,,,,,,0
HWYPEREN,HWYPEREN,HWY 70 S & PERCY WARNER BLVD EB,HIGHWAY 70 S & 5TH AV N,36.084661,-86.894509,,,,,,0
HWYSAWEN,HWYSAWEN,HWY 70 S & SAWYER BROWN RD EB,,36.076953,-86.94581,,,,,,1
H70CHIEF,H70CHIEF,HWY 70 S & CHIMNEY HILL EB,7003 USHY 70S,36.076334,-86.915073,,,,,,1
ALBDBTWF,ALBDBTWF,ALBION ST & DR D B TODD JR BLVD WB,JACKSON & D B TODD,36.166186,-86.806237,,,,,,0
MAIS6SEN,MAIS6SEN,MAIN ST & S 6TH ST EB,,36.173464,-86.763597,0,,,,,0
JAM8AWN,JAM8AWN,JAMES ROBERTSON PKWY & 8TH AVE N WB,JAMES ROBERTSON & 8TH AV N,36.167691,-86.78696,,,,,,
JAMGAYWF,JAMGAYWF,JAMES ROBERTSON PKWY & GAY ST WB,,36.168027,-86.777868,,,,,,
JAM2AEF,JAM2AEF,JAMES ROBERTSON PKWY & 2ND AVE N EB,JAMES ROBERTSON PW & 2ND AV N,36.167694,-86.778124,,,,,,
JEF10AEN,JEF10AEN,JEFFERSON ST & 10TH AVE N EB,JEFFERSON & 10 AVE,36.172277,-86.795009,,,,,,0
JEF10AWN,JEF10AWN,JEFFERSON ST & 10TH AVE N WB,JEFFERSON & 10 AVE,36.172525,-86.794592,,,,,,
JEF11AEN,JEF11AEN,JEFFERSON ST & 11TH AVE N EB,1102 JEFFERSON ST & 11TH AVE,36.17181,-86.79716,0,,,,,0
JEF11TWN,JEF11TWN,JEFFERSON ST & 11TH  AVE N WB,JEFFERSON & 11 AVE,36.171851,-86.797607,,,,,,
JEF12AEN,JEF12AEN,JEFFERSON ST & 12TH AVE N EB,JEFFERSON & 12 AVE,36.171135,-86.79961,,,,,,0
JEF14TWM,JEF14TWM,JEFFERSON ST & 14TH AVE N WB,JEFFERSON & 14 AVE,36.170981,-86.800988,,,,,,0
JEF16EN,JEF16EN,JEFFERSON ST & 16TH AVE N EB,JEFFERSON & 16 AVE N,36.170152,-86.803805,,,,,,
JEF26AWN,JEF26AWN,JEFFERSON ST & 26TH AVE N WB,JEFFERSON ST & I40 RAMP,36.168263,-86.816657,,,,,,0
JEF27AEN,JEF27AEN,JEFFERSON ST & 27TH AVE EB,2646 JEFFERSON ST & 27TH AVE,36.167831,-86.818921,,,,,,0
JEF27AWF,JEF27AWF,JEFFERSON ST & 27TH AVE WB,2642 JEFFERSON ST & 27TH AVE,36.167939,-86.818875,,,,,,0
JEF9AEN,JEF9AEN,JEFFERSON ST & 9TH AVE N EB,JEFFERSON & 9 AVE,36.17293,-86.792455,,,,,,
JEF9AWN,JEF9AWN,JEFFERSON ST & 9TH AVE N WB,,36.173126,-86.792339,,,,,,0
JEFDBTEF,JEFDBTEF,JEFFERSON ST & DR DB TODD JR BLVD EB,JEFFERSON ST & DR D B TODD JR BV,36.169454,-86.806339,0,,,,,0
JEFDBTWN,JEFDBTWN,JEFFERSON ST & DR DB TODD JR BLVD W,1784 JEFFERSON ST & DR DB TODD JR BLVD,36.169608,-86.806359,,,,,,0
JEFI40EN,JEFI40EN,JEFFERSON ST & I-40 EB,JEFFERSON & I40 W,36.168009,-86.817577,,,,,,
JEFI40EF,JEFI40EF,JEFFERSON ST & I-40 EB,2332 JEFFERSON ST,36.168638,-86.812601,,,,,,0
JEFTEMWN,JEFTEMWN,JEFFERSON ST & ED TEMPLE BLVD WB,,36.167813,-86.820382,,,,,,
JEFI40WN,JEFI40WN,JEFFERSON ST & I-40 WB,JEFFERSON & WILSON VILLAGE,36.168689,-86.813078,,,,,,
JOH31AWN,JOH31AWN,JOHN A MERRITT BLVD & 31ST AVE N WB,JOHN A MERRITT BV & 31ST AV N,36.167583,-86.824377,,,,,,
JOH33AEF,JOH33AEF,JOHN MERRITT & 33 AVE,JOHN A MERRITT BV & SCHRADER ACRES DR,36.167145,-86.826597,,,,,,0
JOH28AEN,JOH28AEN,JOHN A MERRITT BLVD & 28TH AVE N EB,2880 JOHN A MERRITT BLVD,36.167831,-86.822246,,,,,,0
JOH31AEN,JOH31AEN,JOHN A MERRITT BLVD & 31ST AVE N EB,,36.167458,-86.824578,,,,,,0
MLKIN,MLKIN,MARTIN LUTHER KING SCHOOL IB,1702 JO JOHNSTON AVE & 17TH AVE,36.161197,-86.80018,,,,,,0
JONJONSN,JONJONSN,JONES AVE & JONES CIR SB,JONES AV & JONE CIR,36.206463,-86.758067,,,,,,
KINHAYEN,KINHAYEN,KINGS LN & HAYNES PARK DR EB,KINGSLANE & HAYNES PARK,36.218819,-86.833837,0,,,,,
LAF1AVWN,LAF1AVWN,LAFAYETTE ST & 1ST AVE S WB,LAFAYETTE & 1 AVE,36.150003,-86.765572,,,,,,
LAF1AEM,LAF1AEM,LAFAYETTE ST & 1ST AVE S EB,LAFAYETTE & 1 AVE,36.149651,-86.765113,,,,,,0
LAF4AWN,LAF4AWN,LAFAYETTE ST & 4TH AVE S WB,LAFAYETTE & 4 AVE,36.151871,-86.770982,,,,,,
LAFLEWWN,LAFLEWWN,LAFAYETTE ST & LEWIS ST WB,162 LAFAYETTE ST & LEWIS ST,36.147586,-86.758364,,,,,,1
LAFFAIEN,LAFFAIEN,LAFAYETTE ST & FAIRFIELD AVE EB,166 LAFAYETTE ST & FAIRFIELD AVE,36.147292,-86.758147,,,,,,0
LEBANDWF,LEBANDWF,LEBANON PIKE & ANDREW JACKSON PKWY WB,,36.215281,-86.598789,0,,,,,
LEBBELNN,LEBBELNN,LEBANON PIKE & BELINDA DR NB,LEBANON PK & BELINDA DR,36.204807,-86.614291,0,,,,,
LEBBELSF,LEBBELSF,LEBANON PIKE & BELINDA DR SB,,36.204566,-86.614892,0,,,,,
LEBBONNN,LEBBONNN,LEBANON PIKE & BONNA SPRING DR NB,LEBANON PK & BONNA SPRING DR,36.195483,-86.621651,,,,,,
LEBBRIEF,LEBBRIEF,LEBANON PIKE & BRILEY PKWY EB,2260 LEBANON PIKE,36.168386,-86.686984,0,,,,,0
LEBCENEF,LEBCENEF,LEBANON PIKE & CENTRAL PK EB,,36.187214,-86.630501,,,,,,0
LEBCENWF,LEBCENWF,LEBANON PIKE & CENTRAL PK WB,LEBANON & CENTRAL PIKE,36.187036,-86.63138,,,,,,
LEBCLOWN,LEBCLOWN,LEBANON PIKE & CLOVERNOOK DR WB,,36.154919,-86.712349,,,,,,
LEBCLOEF,LEBCLOEF,LEBANON PIKE & CLOVERNOOK DR EB,,36.154874,-86.711963,,,,,,
LEBCRAWN,LEBCRAWN,LEBANON PIKE & CRAIGMEADE DR WB,,36.168174,-86.691162,,,,,,
LEBDANNN,LEBDANNN,LEBANON PIKE & DANYACREST AVE NB,LEBANON PK & DANYACREST AV,36.179616,-86.64385,,,,,,
HERDECWN,HERDECWN,HERMITAGE AVE & DECATUR AVE WB,,36.153619,-86.753111,0,,,,,
LEBDISWN,LEBDISWN,LEBANON PIKE & DISPAYNE DR SB,,36.172821,-86.649359,,,,,,0
LEBDONEM,LEBDONEM,LEBANON PIKE & DONELSON PIKE EB,2832 LEBANON PIKE,36.167014,-86.660909,,,,,,0
LEBDONEN,LEBDONEN,LEBANON PIKE & DONELSON PIKE EB,US HWY 70 & LEBANON PIKE,36.167637,-86.663513,,,,,,
LEBDOWN,LEBDOWN,LEBANON PIKE & DOWNEY MEADE DR SB,,36.181662,-86.642131,,,,,,
LEBFAIWN,LEBFAIWN,LEBANON PIKE & FAIRWAY DR WB,2406 LEBANON PIKE & FAIRWAY DR,36.169185,-86.682242,,,,,,0
LEBFAIEN,LEBFAIEN,LEBANON PIKE & FAIRWAY DR EB,2390 LEBANON PIKE & FAIRWAY DR,36.168967,-86.682594,,,,,,0
LEBFESN,LEBFESN,LEBANON PIKE & FESSLERS LN WB,,36.154424,-86.743072,,,,,,
LEBFESEN,LEBFESEN,LEBANON PIKE & FESSLERS LN EB,,36.154271,-86.742493,,,,,,
LEBGRAWN,LEBGRAWN,LEBANON PIKE & GRAYLNN DR WB,,36.169933,-86.674357,,,,,,
LEBAGREF,LEBAGREF,LEBANON PIKE & GRAYLYNN DR EB,LEBANON PK & GRAYLYNN DR,36.169796,-86.673928,0,,,,,
LEBHICNM,LEBHICNM,LEBANON PIKE & HICKORY HILL LN NB,LEBANON PK & HICKORY HILL,36.188823,-86.628212,,,,,,
LEBHICSN,LEBHICSN,LEBANON PIKE & HICKORY HILL LN SB,,36.188605,-86.628997,0,,,,,0
LEBHCKNM,LEBHCKNM,LEBANON PIKE & HICKORY HILL LN NB,LEBANON PK & JACKSON'S COURT YARD,36.190017,-86.62654,,,,,,
LEBJACEF,LEBJACEF,LEBANON PIKE & JACKSON DOWNS BLVD EB,LEBANON PK & JACKSON DOWNS BLVD,36.182108,-86.640891,0,,,,,
LEBJACSN,LEBJACSN,LEBANON PIKE & JACKSONIAN DR SB,LEBANON & JACKSONIAN/JUAREZ,36.193116,-86.623786,,,,,,
LEBJUASN,LEBJUASN,LEBANON PIKE & JUAREZ DR NB,LEBANON PK & JUAREZ DR,36.19301,-86.62348,,,,,,
LEBJACEM,LEBJACEM,LEBANON PIKE & JACKSON DOWNS BLVD E,,36.18533,-86.636017,,,,,,
LEBLEBEN,LEBLEBEN,LEBANON PIKE & LEBANON PIKE CIR EB,,36.153544,-86.718321,,,,,,
LEBLYNSN,LEBLYNSN,LEBANON PIKE & LYNNMEADE DR SB,,36.161355,-86.701771,,,,,,0
LEBLYNNN,LEBLYNNN,LEBANON PIKE & LYNMEADE DR NB,LEBANON RD & US HWY 70,36.161079,-86.701874,,,,,,
LEBLYNNM,LEBLYNNM,LEBANON PIKE & LYNMEADE DR NB,,36.162808,-86.70011,0,,,,,
LEBMCGWF,LEBMCGWF,LEBANON PIKE & MCGAVOCK PK WB,,36.169353,-86.680458,,,,,,
LEBMCGEF,LEBMCGEF,LEBANON PIKE & MCGAVOCK PK EB,2512 LEBANON PIKE & MCGAVOCK PIKE,36.169355,-86.67936,,,,,,0
LEBMCGEM,LEBMCGEM,LEBANON PIKE & MCGAVOCK PK EB,,36.16954,-86.677259,,,,,,0
LEBMONNF,LEBMONNF,LEBANON PIKE & MONACO DR NB,LEBANON PK & MONACO DR,36.206181,-86.61293,,,,,,
LEBMONSN,LEBMONSN,LEBANON PIKE & MONACO DR SB,,36.20624,-86.613246,,,,,,
LEBMUNSN,LEBMUNSN,LEBANON PIKE & MUNN RD SB,LEBANON PK & MUNN RD,36.168906,-86.656096,,,,,,
LEBOMOWN,LEBOMOWN,LEBANON PIKE & OMOHUNDRO PL WB,,36.153681,-86.733762,,,,,,
LEBSPEWM,LEBSPEWM,LEBANON PIKE & SPENCE LN  WB,,36.153425,-86.724436,,,,,,0
LEBBONSF,LEBBONSF,LEBANON PIKE & BONNA SPRINGS DR SB,LEBANON PK & MUNN RD,36.195357,-86.621937,,,,,,
LEBSTOWM,LEBSTOWM,LEBANON PIKE & STONES RIVER RD WB,LEBANON & DOWNEYMEADE,36.185434,-86.636695,,,,,,
LEBDANSM,LEBDANSM,LEBANON PIKE & DANYACREST DR SB,LEBANON & WELLINGTON SQ,36.178744,-86.64485,,,,,,
LEBSPRSN,LEBSPRSN,LEBANON PIKE & SPRING PLACE DR SB,,36.174309,-86.647406,,,,,,
LEBPARWM,LEBPARWM,LEBANON PIKE & PARK DR WB,LEBANON & MCGAVOCK,36.169721,-86.677448,,,,,,
LEBBRIWN,LEBBRIWN,LEBANON PIKE & BRILEY PKWY WB,,36.168806,-86.685747,,,,,,0
LEBLEBWM,LEBLEBWM,LEBANON PIKE & LEBANON PIKE CIR WB,LEBANON & SPENCE,36.153806,-86.718351,,,,,,
LEBOLDNN,LEBOLDNN,LEBANON PIKE & OLD HICKORY BLVD NB,LEBANON PK & OLD HICKORY BLVD,36.197895,-86.620409,,,,,,
LEBOMOEM,LEBOMOEM,LEBANON PIKE & OMOHUNDRO PL EB,,36.153458,-86.733717,,,,,,
LEBOMDEN,LEBOMDEN,LEBANON PIKE & OMOHUNDRO DR EB,,36.156939,-86.709065,,,,,,
LEBOMOEN,LEBOMOEN,LEBANON PIKE & OMOHUNDRO PL EB,,36.154402,-86.739793,,,,,,
LEBSHUEN,LEBSHUEN,LEBANON PIKE & SHUTE LN EB,LEBANON PK & SHUTE LN,36.214687,-86.604135,0,,,,,
LEBANDWM,LEBANDWM,LEBANON PIKE & ANDREW JACKSON PKWY EB,LEBANON & SHUTE CANE,36.215305,-86.602305,0,,,,,
LEBSPEWN,LEBSPEWN,LEBANON PIKE & SPENCE LN WB,,36.153846,-86.721279,,,,,,0
LEBSPEEF,LEBSPEEF,LEBANON PIKE & SPENCE LN EB,,36.153637,-86.721111,,,,,,0
LEBSPEEM,LEBSPEEM,LEBANON PIKE & SPENCE LN EB,,36.153217,-86.72465,,,,,,
LEBMUNEN,LEBMUNEN,LEBANON PIKE & MUNN LN EB,LEBANON PK & MUNN LN,36.168641,-86.656204,,,,,,
LEBTYLNF,LEBTYLNF,LEBANON PIKE & TYLER DR  NB,LEBANON PK & TYLER DR,36.201715,-86.617208,,,,,,
LEBWEWN,LEBWEWN,LEBANON PIKE & WEELINGTON SQ SB,,36.176888,-86.645588,,,,,,
LISCLESN,LISCLESN,LISCHEY AVE & CLEVELAND ST SB,,36.186979,-86.764469,,,,,,0
LISRICNM,LISRICNM,LISCHEY AVE & RICHARDSON AVE NB,LISCHEY & DOUGLAS,36.193233,-86.763275,,,,,,
LISDOUNF,LISDOUNF,LISCHEY AVE & DOUGLAS AVE NB,,36.194476,-86.763076,,,,,,
LISEDINN,LISEDINN,LISCHEY AVE & EDITH AVE NB,LISCHEY AV & MARSHALL ST,36.201857,-86.761771,,,,,,
LISEDWNN,LISEDWNN,LISCHEY AVE & EDWIN ST NB,,36.204126,-86.761306,0,,,,,0
LISEVANN,LISEVANN,LISCHEY AVE & EVANSTON AVE NB,,36.190616,-86.763738,,,,,,
LISEVASN,LISEVASN,LISCHEY AVE & EVANSTON AVE SB,,36.189279,-86.764073,,,,,,
LISMARNF,LISMARNF,LISCHEY AVE & MARIE ST NB,,36.196629,-86.762686,,,,,,
MAIGRAEN,MAIGRAEN,MAINSTREAM DR & GREAT CIRCLE RD EB,,36.19922,-86.80876,0,,0,,,0
MAIMCFEN,MAIMCFEN,MAIN ST & MCFERRIN AVE EB,,36.176318,-86.756009,,,,,,
MAIFRENF,MAIFRENF,MAINSTREAM DR & FREELAND ST RD NB,683 MAINSTREAM DR,36.195922,-86.817672,,,,,,0
MAIFREEM,MAIFREEM,MAINSTREAM DR & FREELAND STN RD EB,641 MAINSTREAM DR,36.197812,-86.81663,0,,,,,0
MAI5STWN,MAI5STWN,MAIN ST & 5TH ST WB,,36.173071,-86.764954,,,,,,0
MASACOEN,MASACOEN,MASSMAN DR & ACORN DR EB,,36.153829,-86.701691,,,,,,
MASELMNF,MASELMNF,MASSMAN DR & ELM HILL PIKE NB,792 MASSMAN DR,36.145559,-86.711338,,,,,,0
MASELMSN,MASELMSN,MASSMAN DR & ELM HILL PIKE SB,,36.14502,-86.711187,0,,,,,2
MAYDUPSN,MAYDUPSN,MAY DR & N. DUPONT AVE SB,,36.267449,-86.695156,,,,,,
MCGHUFWN,MCGHUFWN,MCGAVOCK PIKE & HUFFINE ST WB,,36.204271,-86.729218,,,,,,
MCGSCOWM,MCGSCOWM,MCGAVOCK PIKE & SCOTT AVE WB,,36.204474,-86.731595,,,,,,
MEALYTNN,MEALYTNN,MEADOW HILL DR & LYTLE DR NB,,36.221755,-86.825068,,,,,,0
MER2SWN,MER2SWN,MERIDIAN ST & N 2ND ST WB,MERIDIAN & 2 AVE,36.178944,-86.771204,,,,,,0
MERBERNN,MERBERNN,MERIDIAN ST & BERRY ST NB,MERIDIAN ST & TREUTLAND ST,36.181099,-86.768835,,,,,,
MERCLENN,MERCLENN,MERIDIAN ST & CLEVELAND ST NB,,36.186802,-86.768004,,,,,,0
MERHANNN,MERHANNN,MERIDIAN ST & HANCOCK ST NB,,36.183683,-86.768456,,,,,,
MERLISEN,MERLISEN,MERIDIAN ST & LISCHEY PL EB,MERIDIAN & SPRING,36.178783,-86.77052,,,,,,
METATHWM,METATHWM,METROCENTER & ATHENS WAY WB,METRO CENTER & ATHENS WAY,36.193468,-86.804342,,,,,,0
MOOCRISN,MOOCRISN,MOOREWOOD DR & CRISLYNNDALE DR SB,,36.237078,-86.773387,,,,,,0
MOOWILSF,MOOWILSF,MOOREWOOD DR & WILMOTH RD SB,3205 MOOREWOOD DR & WILMOTH RD,36.235365,-86.775314,,,,,,0
MURARLEM,MURARLEM,MURFREESBORO PIKE & ARLINGTON AVE E,,36.13884,-86.73271,,,,,,0
MURBLAWF,MURBLAWF,MURFREESBORO PIKE & BLANTON AVE WB,107 MAPLE AVE & MURFREESBORO PIKE,36.138954,-86.732227,,,,,,0
MURBORNF,MURBORNF,MURFREESBORO PIKE & BOROWOOD DR NB,2158 MURFREESBORO PIKE & BRITISH WOODS DR,36.091459,-86.651302,,,,,,1
MURBORSN,MURBORSN,MURFREESBORO PIKE & BOROWOOD DR SB,MURFREESBORO & BRITISHWOOD,36.091319,-86.65147,,,,,,0
MURBROSN,MURBROSN,MURFREESBORO PIKE & BROOKSBORO TER SB,,36.083767,-86.647361,0,,,,,0
MURBRONN,MURBRONN,MURFREESBORO PIKE & BROOKSBORO TR NB,2366 MURFREESBORO PIKE & BROOKSBORO TER,36.083498,-86.647019,0,,,,,0
MURDELEN,MURDELEN,MURFREESBORO PIKE & DELL PKWY EB,MURFREESBORO & DELL PARKWAY,36.107739,-86.677328,,,,,,0
MURDELWN,MURDELWN,MURFREESBORO PIKE & DELL PKWY WB,,36.107799,-86.676468,,,,,,0
MURREEWN,MURREEWN,MURFREESBORO PIKE & REEDWOOD DR,MURFREESBORO & DONELSON,36.104936,-86.669667,,,,,,0
MURDOVSF,MURDOVSF,MURFREESBORO PIKE & DOVER GLEN DR S,MURFREESBORO & DOVERBLE,36.076775,-86.641112,,,,,,0
MURFESEN,MURFESEN,MURFREESBORO PIKE & FESSLERS LN EB,MURFREESBORO & FESSLERS LANE,36.142803,-86.744655,,,,,,0
MURFESWF,MURFESWF,MURFREESBORO PIKE & FESSLERS LN WB,,36.143158,-86.745103,,,,,,
MURFRASN,MURFRASN,MURFREESBORO PIKE & FRANKLIN LIMEST,MURFREESBORO & FRANKLIN LIMESTONE,36.094514,-86.653638,,,,,,
MURKNIEN,MURKNIEN,MURFREESBORO PIKE & KNIGHT VALLEY DR EB,MURFREESBORO & MCGAVOCK,36.11292,-86.689366,0,,,,,0
MURMCGWN,MURMCGWN,MURFREESBORO PIKE & MCGAVOCK PIKE WB,,36.116474,-86.697091,0,,,,,
MURMCGEF,MURMCGEF,MURFREESBORO PIKE & MCGAVOCK PIKE EB,,36.11584,-86.696438,0,,,,,0
MURMLWWN,MURMLWWN,MURFREESBORO PK & MILLWOOD,US HWY 41 & STATE HWY 1,36.129503,-86.714454,,,,,,1
MURMILEN,MURMILEN,MURFREESBORO PIKE & MILLWOOD DR EB,,36.129522,-86.714961,,,,,,0
MURSHISM,MURSHISM,MURFREESBORO PIKE & SHIAWAY DR SB,MURFREESBORO & MORTWAY,36.080171,-86.645483,,,,,,
MURFRANN,MURFRANN,MURFREESBORO PIKE & FRANKLIN LIMEST,MURFREESBORO & OLD MURFREESBORO,36.094437,-86.653178,,,,,,0
MURHARWN,MURHARWN,MURFREESBORO PIKE & HARDING PL WB,1844 MURFREESBORO PIKE & HARDING PL,36.098534,-86.659101,,,,,,0
MURHAREN,MURHAREN,MURFREESBORO PIKE & HARDING PL EB,MURFREESBORO & TOWN PARK DR,36.098669,-86.659698,,,,,,
MURWILEN,MURWILEN,MURFREESBORO PIKE & WILHAGAN RD EB,MURFREESBORO & WILHAGAN ROAD,36.132429,-86.719647,,,,,,
MURWILWF,MURWILWF,MURFREESBORO PIKE & WILHAGAN RD WB,,36.132712,-86.719557,,,,,,
1SOLDSM,1SOLDSM,N 1ST ST & OLDHAM ST SB,146 1ST ST N,36.172087,-86.773844,,,,,,0
1SSPRSM,1SSPRSM,N 1ST ST & SPRING ST SB,252 1ST ST N,36.175614,-86.774526,0,,,,,0
NEERIVSN,NEERIVSN,NEELYS BEND RD & RIVER PASS,,36.245185,-86.679192,,,,,,
NXIANTCH,NXIANTCH,ANTIOCH STATION INBOUND,NOLENSVILLE & ANTIOCH,36.102326,-86.740727,,,,,,1
NOLAPRNN,NOLAPRNN,NOLENSVILLE PIKE & APRIL LN NB,US HWY 31 ALT & NOLENSVILLE PIKE,36.055847,-86.715456,,,,,,
NOLBRENN,NOLBRENN,NOLENSVILLE PIKE & BREWER DR NB,US HWY 31 ALT & BREWER DR,36.053564,-86.714792,,,,,,
NOLEDMSF,NOLEDMSF,NOLENSVILLE PIKE & EDMONSON PIKE SB,4201 NOLENSVILLE PIKE & EDMONSON/WALLCE,36.076513,-86.725543,,,,,,
NOLELYNN,NOLELYNN,ELYSIAN FIELDS STATION INBOUND,3904 NOLENSVILLE PIKE,36.08653,-86.729632,,,,,,1
NOLELYSN,NOLELYSN,ELYSIAN FIELDS STATION OUTBOUND,NOLENSVILLE & ELYSIAN FIELDS,36.086253,-86.729671,,,,,,1
NOLFAINM,NOLFAINM,NOLENSVILLE PIKE & FAIRLANE DR NB,US HWY 31 ALT & NOLENSVILLE PIKE,36.064303,-86.717023,,,,,,0
NOLFLONN,NOLFLONN,NOLENSVILLE PIKE & FLORA MAXWELL RD NB,,36.074956,-86.724751,0,,,,,
NXIGLNRS,NXIGLNRS,GLENROSE STATION INBOUND,NOLENSVILLE & GLENROSE,36.126133,-86.752571,,,,,,1
NOLHAYNF,NOLHAYNF,NOLENSVILLE PK & HAYWOOD LN,4677 NOLENSVILLE PIKE,36.068691,-86.719428,,,,,,0
NOLHAYSN,NOLHAYSN,NOLENSVILLE PIKE & HAYWOOD LN SB,US HWY 31 ALT & US HWY 41 ALT,36.068213,-86.719328,,,,,,
NOLMCMSN,NOLMCMSN,NOLENSVILLE PIKE & MCMURRAY DR SB,,36.061867,-86.716904,,,,,,
NXOMCNLY,NXOMCNLY,MCNALLY STATION OUTBOUND,NOLENSVILLE & MCNALLY,36.093821,-86.736616,,,,,,0
NXOANTCH,NXOANTCH,ANTIOCH STATION OUTBOUND,NOLENSVILLE PK & ANTIOCH PK,36.1019,-86.740743,,,,,,1
NXOPCHTR,NXOPCHTR,PEACHTREE STATION OUTBOUND,NOLENSVILLE & MELROSE,36.119777,-86.749754,,,,,,
NXIMCNLY,NXIMCNLY,MCNALLY STATION INBOUND,NOLENSVILLE & NATCHEZ,36.093692,-86.736273,,,,,,
NXOFRGND,NXOFRGND,FAIRGROUNDS STATION OUTBOUND,4TH AV S & WALSH RD,36.135034,-86.759818,,,,,,1
NXOGLNRS,NXOGLNRS,GLENROSE STATION OUTBOUND,NOLENSVILLE & GLENROSE AV,36.126086,-86.752832,,,,,,1
NOLNORNN,NOLNORNN,NOLENSVILLE PIKE & NORTHCREST DR NB,,36.066634,-86.717764,,,,,,0
NOLNORSN,NOLNORSN,NOLENSVILLE PIKE & NORTHCREST DR SB,NOLENSVILLE & NORTHCREST DR.,36.066936,-86.718231,,,,,,
NOLNORSM,NOLNORSM,NOLENSVILLE PIKE & NORTHCREST DR SB,,36.065119,-86.71749,,,,,,
NOLOCASN,NOLOCASN,NOLENSVILLE PIKE & OCALA DR SB,,36.05165,-86.71458,,,,,,
NOLOLDSN,NOLOLDSN,NOLENSVILLE PIKE & OLD HICKORY BLVD,5787 NOLENSVILLE PIKE & OLD HICKORY BLVD,36.045659,-86.713452,,,,,,0
NXIPCHTR,NXIPCHTR,PEACHTREE STATION INBOUND,US HWY 31 ALT & NEWSOM ST,36.120327,-86.749782,,,,,,1
NOLTAYWN,NOLTAYWN,NOLENSVILLE PIKE & TAYLOR RD WB,,36.069631,-86.720726,,,,,,0
NXITHMPN,NXITHMPN,THOMPSON STATION INBOUND,NOLENSVILLE & THOMPSON,36.112037,-86.745666,,,,,,1
NXOTHMPN,NXOTHMPN,THOMPSON STATION OUTBOUND,NOLENSVILLE & MCCLAIN AV,36.111844,-86.745821,,,,,,
NOLTUSNN,NOLTUSNN,NOLENSVILLE PIKE & TUSCULUM RD NB,NOLENSVILLE PK & TUSCULUM RD,36.058921,-86.716075,,,,,,0
NOLTUSSN,NOLTUSSN,NOLENSVILLE PIKE & TUSCULUM RD SB,US HWY 31 ALT & US HWY 41 ALT,36.059175,-86.716445,,,,,,
NOLAPRSN,NOLAPRSN,NOLENSVILLE PIKE & APRIL LN SB,NOLENSVILLE & TUSCULUM,36.056148,-86.715911,,,,,,
NXIVERTS,NXIVERTS,VERITAS STATION INBOUND,NOLENSVILLE & VERITAS,36.097942,-86.7385,,,,,,1
NOLWALNN,NOLWALNN,NOLENSVILLE PIKE & WALLACE RD NB,NOLENSVILLE PK & EDMONDSON PK,36.076974,-86.725383,,,,,,0
NXIFRGND,NXIFRGND,FAIRGROUNDS STATION INBOUND,NOLENSVILLE & WALSH,36.135392,-86.759737,,,,,,0
NOLFLOSN,NOLFLOSN,NOLENSVILLE PIKE & FLORA MAXWELL RD,NOLENSVILLE PK & FLORA MAXWELL RD,36.075055,-86.725073,,,,,,
NXOWDCST,NXOWDCST,WOODYCREST STATION OUTBOUND,NOLENSVILLE & WOODY CREST,36.130773,-86.755878,,,,,,
NXINVZOO,NXINVZOO,NASHVILLE ZOO STATION INBOUND,NOLENSVILLE PK & ZOO RD,36.090045,-86.733393,,,,,,1
NXONVZOO,NXONVZOO,NASHVILLE ZOO STATION OUTBOUND,NOLENSVILLE & ZOO,36.089632,-86.733373,0,,,,,0
OAKALLNN,OAKALLNN,OAKWOOD  AVE & ALLENWOOD DR NB,,36.211891,-86.753488,,,,,,
OAKSTASN,OAKSTASN,OAKVIEW DR & STARLIGHT DR SB,,36.238116,-86.766147,,,,,,
OLDBELNF,OLDBELNF,OLD HICKORY & BELLE FOREST CIR NB,OLD HICKORY BLVD & BELLE FOREST CIR,36.077513,-86.919895,,,,,,2
OLDBLFSN,OLDBLFSN,OLD HICKORY BLVD & BELLE FOREST CR SB,OLD HICKORY BLVD & BELLE FOREST DR,36.077656,-86.920051,,,,,,
HICOLDNF,HICOLDNF,HICKORY PLAZA DR & OLD HICKORY BLVD NB,5784 HICKORY PLAZA DR,36.045751,-86.716874,0,,,,,0
HICHVINN,HICHVINN,HICKORY PZ & HICKORYVIEW DR,HICKORY PLZ & HICKORYVIEW DR,36.048729,-86.716298,,,,,,
OLDBELSM,OLDBELSM,OLD HICKORY BLVD & BELLE FOREST CR SB,OLD HICKORY BV & BELLE FOREST CR,36.075888,-86.921023,,,,,,0
OLDHINSM,OLDHINSM,OLD HICKORY BLVD & HINDU TEMPLE SB,523 OLD HICKORY BLVD,36.100213,-86.924106,,,,,,2
OLDRIDNN,OLDRIDNN,OLD HICKORY BLVD &  RIDGELAKE PKWY NB,OLD HICKORY BLVD & MADISON RIDGELAKE APARTMENTS,36.097267,-86.924712,,,,,,
OLDRIDSF,OLDRIDSF,OLD HICKORY BLVD & RIDGELAKE PKWY SB,OLD HICKORY BLVD & MADISON AT RIDGELAKE APARTMENTS,36.097223,-86.924922,,,,,,2
OPROPRNM,OPROPRNM,OPRY MILLS FOOD COURT,PARKING LOT & DRIVEWAY,36.202834,-86.693524,,,,,,
CREPARWN,CREPARWN,CREEKWOOD DR & PARK CREEK DR WB,,36.233771,-86.768442,,,,,,1
CREPARWF,CREPARWF,CREEKWOOD DR & PARK CREEK DR WB,3227 CREEKWOOD DR,36.232446,-86.770036,,,,,,0
CREOAKSN,CREOAKSN,CREEKWOOD DR & OAKVIEW DR SB,,36.23502,-86.766514,,,,,,0
CREOAKSM,CREOAKSM,CREEKWOOD DR & OAKVIEW DR SB,3333 CREEKWOOD DR,36.234353,-86.76768,,,,,,0
CRERICWN,CRERICWN,CREEKWOOD DR & RICHMOND HILL DR WB,,36.231444,-86.773358,,,,,,
PON10AEM,PON10AEM,PONDER PL & 10TH AVE N EB,PONDER PLACE & ATHENS WAY,36.19168,-86.803943,,,,,,0
PONATHE2,PONATHE2,PONDER PL & ATHENS WAY EB,,36.191732,-86.802666,,,,,,
PORGRENN,PORGRENN,PORTER RD & GREENWOOD AVE NB,,36.18823,-86.729414,,,,,,
BRAEIRNN,BRAEIRNN,BRANSFORD AVE & EAST IRIS DR NB,BRANSFORD AV & E IRIS DR,36.116603,-86.76628,,,,,,
BRABERNM,BRABERNM,BRANSFORD AVE & BERRY RD NB,2605 BRANSFORD AVE,36.121653,-86.765486,0,,,,,0
100OAKS,100OAKS,100 OAKS MALL,ARMORY OAKS DR & WILBUR DR,36.106851,-86.762639,,,,,,1
POWBRASN,POWBRASN,POWELL AVE & BRANSFORD AVE,,36.110678,-86.767185,,,,,,
POWPOWNM,POWPOWNM,POWELL AVE & POWELL PL NB,,36.108232,-86.765569,,,,,,
PREWILSF,PREWILSF,PREMIER DR & WILCLAY DR SB,,36.144522,-86.880339,,,,,,1
RICEWISN,RICEWISN,RICHMOND HILL DR & EWING DR SB,3033 RICHMOND HILL DR & EWING DR,36.230495,-86.773861,0,,,,,0
RICHILWN,RICHILWN,RICHARD JONES RD & HILLSBORO PIKE W,2090 RICHARD JONES RD & HILLSBORO PIKE,36.104841,-86.814243,,,,,,0
RICLONWF,RICLONWF,RICHARD JONES & LONE OAK RD WB,1984 RICHARD JONES RD & HILLMONT DR,36.104484,-86.809306,,,,,,0
RICVAIWN,RICVAIWN,RICHMOND HILLS DR & VAILVIEW DR WB,,36.234415,-86.774882,,,,,,0
RIVDORNM,RIVDORNM,RIVERSIDE DR & DORCHESTER AVE NB,1803 RIVERSIDE DR & DORCHESTER AVE,36.198116,-86.723062,,,,,,0
RIVPIENN,RIVPIENN,RIVERSIDE DR & PIEDMONT AVE NB,,36.201567,-86.722604,,,,,,
ROWBUESN,ROWBUESN,ROWAN DR & BUENA VISTA PIKE SB,ROWAN DR & BUENA VISTA PK,36.21714,-86.819509,,,,,,0
ROWBUENN,ROWBUENN,ROWAN DR & BUENA VISTA PIKE NB,ROWAN DRIVE & BUENA VISTA PK,36.217237,-86.819123,,,,,,
ROWCRONN,ROWCRONN,ROWAN DR & CROUCH DR NB,766 ROWAN DR & CROUCH DR,36.21883,-86.817947,,,,,,0
ROWCRAEN,ROWCRAEN,ROWAN DR & CRAVATH DR EB,,36.220553,-86.811372,,,,,,
ROYDONEN,ROYDONEN,ROYAL PKWY & DONELSON PIKE EB,,36.145921,-86.66687,,,,,,
ROYPEREM,ROYPEREM,ROYAL PKWY & PERIMETER PL EB,ROYAL PKWY & RACHEL PKWY,36.148364,-86.674225,,,,,,
ROYRACEN,ROYRACEN,ROYAL PKWY & RACHEL DR EB,,36.147035,-86.672372,,,,,,
SAWPLANM,SAWPLANM,SAWYER BROWN RD & PLANTATION DR NB,,36.074755,-86.945953,,,,,,
SHABELEN,SHABELEN,SHACKLEFORD RD & BELMONT BLVD EB,1602 SHACKLEFORD RD & BELMONT BLVD,36.101328,-86.80261,,,,,,0
SHALONWN,SHALONWN,SHACKLEFORD RD & LONE OAK RD WB,1888 SHACKLEFORD RD & LONE OAK RD,36.102172,-86.808761,,,,,,0
SHE10SWN,SHE10SWN,SHELBY AVE & S 10TH ST WB,,36.171413,-86.751834,,,,,,
SHE11SEN,SHE11SEN,SHELBY AVE & S 11TH ST EB,,36.171202,-86.750954,,,,,,
SHE14SEN,SHE14SEN,SHELBY AVE & S 14TH ST EB,,36.17079,-86.74695,,,,,,
SHE14SWN,SHE14SWN,SHELBY AVE & S 14TH ST WB,,36.170861,-86.746613,,,,,,
SHE16SEN,SHE16SEN,SHELBY AVE & S 16TH ST EB,1593 SHELBY AVE & 16TH ST S,36.170439,-86.742956,,,,,,0
SHE17SEN,SHE17SEN,SHELBY AVE & S 17TH ST EB,,36.170207,-86.74041,,,,,,
SHE19SEN,SHE19SEN,SHELBY AVE & S 19TH ST EB,,36.169954,-86.737673,,,,,,0
SHE6STEN,SHE6STEN,SHELBY AVE & S 6TH ST EB,595 SHELBY AVE & 6TH ST S,36.168252,-86.760367,0,,,,,0
SHE6SWM,SHE6SWM,SHELBY AVE & S 6TH ST WB,603 SHELBY AVE & 6TH ST S,36.168564,-86.759938,,,,,,0
SHE7SWN,SHE7SWN,SHELBY AVE & S 7TH ST WB,711 SHELBY AVE & 7TH ST S,36.169407,-86.757756,,,,,,0
SHE7SEN,SHE7SEN,SHELBY AVE & S 7TH ST EB,689 SHELBY AVE & 7TH ST S,36.169144,-86.758006,,,,,,0
SHE8SEN,SHE8SEN,SHELBY AVE & S 8TH ST EB,,36.169855,-86.756272,,,,,,
SHE9SEN,SHE9SEN,SHELBY AVE  & S 9TH ST EB,891 SHELBY AVE & 9TH ST S,36.170518,-86.754413,,,,,,0
SHE9SWM,SHE9SWM,SHELBY AVE & S 9TH ST WB,887 SHELBY AVE & 9TH ST S,36.170622,-86.754573,,,,,,0
SLAOAKE,SLAOAKE,SLAYDON DR & OAKWOOD AVE EB,SLAYDEN & OAKWOOD,36.210825,-86.753878,,,,,,0
TEN44AWM,TEN44AWM,TENNESSEE AVE & 44TH AVE N WB,TENNESSEE & 44 AVE,36.161107,-86.841286,,,,,,0
TEN44AEN,TEN44AEN,TENNESSEE AVE & 44TH AVE N EB,TENNESSEE & 44 AVE,36.161013,-86.840794,,,,,,
TEN48AEN,TEN48AEN,TENNESSEE AVE & 48TH AVE N EB,TENNESSEE & 48TH AVE NORTH,36.161031,-86.84537,,,,,,
TEN48AEM,TEN48AEM,TENNESSEE AVE & 48TH AVE N EB,TENNESSEE & 48TH AVE NORTH,36.160893,-86.843896,,,,,,
TEN48AWN,TEN48AWN,TENNESSEE AVE & 48TH AVE N WB,TENNESSEE & 48TH  AVE NORTH,36.16103,-86.843913,,,,,,
TEN49AWN,TEN49AWN,TENNESSEE AVE & 49TH AVE N WB,TENNESSEE AV & 49TH AV NORTH,36.161082,-86.846414,,,,,,
TEN49AEN,TEN49AEN,TENNESSEE AVE & 49TH AVE N EB,,36.160984,-86.846571,,,,,,
51ATENNN,51ATENNN,51ST AVE N & TENNESSEE AVE NB,TENNESSEE & 51 AVE,36.160713,-86.84895,,,,,,0
THOPOWEM,THOPOWEM,THOMPSON LN & POWELL AVE EB,THOMPSON & BRANDSFORD AV,36.112013,-86.764776,,,,,,
THOEIREF,THOEIREF,THOMPSON LN & EAST IRIS DR,THOMPSON & E IRIS DR,36.111799,-86.762652,,,,,,
THOKRAEF,THOKRAEF,THOMPSON LN & KRAFT DR,,36.111311,-86.757596,,,,,,0
THOWESWF,THOWESWF,THOMPSON LN & WEST IRIS DR WB,,36.112451,-86.768579,,,,,,0
TODDOREN,TODDOREN,TODD PREIS DR & DORAL COUNTRY DR  EB,,36.070333,-86.945514,,,,,,
TODDORWN,TODDORWN,TODD PREIS DR & DORAL COUNTRY DR WB,,36.070268,-86.945138,,,,,,
TODSAWWN,TODSAWWN,TODD PREIST DR & SAWYER BROWN RD WB,,36.07108,-86.94684,,,,,,
UNI2AWN,UNI2AWN,UNION ST & 2ND AVE WB,UNION ST N & SKYVIEW DR,36.166215,-86.777565,,,,,,
UNI7AWN,UNI7AWN,UNION ST & 7TH AVE N WB,UNION & 7 AVE,36.163599,-86.783404,,,,,,
UNIPOLWM,UNIPOLWM,UNION ST & POLK AVE WB,UNION & 8 AVE,36.163064,-86.784562,,,,,,
VAISPEEM,VAISPEEM,VAILVIEW DR & SPEARS RD EB,VAILVIEW DR & OAKVIEW DR,36.239673,-86.768103,,,,,,0
VAIBRIEM,VAIBRIEM,VAILVIEW DR & BRICKDALE LN EB,3235 VAILVIEW DR,36.236609,-86.77118,,,,,,0
VAIQUAEN,VAIQUAEN,VAILVIEW DR & QUALYNN DR EB,,36.237217,-86.770335,,,,,,0
VAIROBEN,VAIROBEN,VAILVIEW DR & ROBWOOD DR EB,VAILVIEW DR & UNNAMED STREET,36.237993,-86.769273,,,,,,0
VANGREWM,VANGREWM,VANTAGE WAY & GREAT CIRCLE RD WB,44 VANTAGE WAY & CONNECTING ROAD,36.19169,-86.79438,0,,,,,0
VILBRIEM,VILBRIEM,VILLAGE TRL & BRICK CHURCH PIKE EB,3609 VILLAGE TRL & MOONLIGHT DR,36.24719,-86.777231,,,,,,1
VILSTAEM,VILSTAEM,VILLAGE TRL & STANDING STONE DR EB,VILLAGE TRAIL & MOOREWOOD DR,36.247457,-86.773292,,,,,,
WALLINNN,WALLINNN,WALLACE RD & LINBAR DR NB,,36.081356,-86.702265,,,,,,
WALSOUEN,WALSOUEN,WALLACE RD & SOUTHERN HILLS EB,WALLACE RD & BROOKRIDGE TL,36.077723,-86.724153,,,,,,
WALBROEM,WALBROEM,WALLACE RD & BROOKRIDGE TL EB,,36.079052,-86.720713,,,,,,
WALTUREN,WALTUREN,WALLACE RD & TURLEY DR EB,WALLACE RD & SHERMAN OAKS DR,36.079055,-86.708431,,,,,,
WED17AEN,WED17AEN,WEDGEWOOD AVE & 17TH AVE S EB,WEDGEWOOD & 17 AVE,36.136868,-86.795931,,,,,,
WED19AEN,WED19AEN,WEDGEWOOD AVE & 19TH AVE S EB,WEDGEWOOD & 19 AVE,36.137287,-86.798379,,,,,,
WEDBRAEN,WEDBRAEN,WEDGEWOOD AVE & BRANSFORD AVE EB,,36.133255,-86.769002,,,,,,
WES17AWN,WES17AWN,WEST END AVE & 17TH AVE S WB,WEST END AV & 17TH AV N,36.153941,-86.794329,0,,,,,1
WES17AEN,WES17AEN,WEST END AVE & 17TH AVE S EB,WEST END AV & 17TH AV S,36.153658,-86.794441,,,,,,1
WES20AWN,WES20AWN,WEST END AVE & 20TH AVE S WB,WEST END AV & 20TH AV S,36.151548,-86.79923,,,,,,0
WES20AEN,WES20AEN,WEST END AVE & 20TH AVE S EB,,36.151248,-86.799394,,,,,,1
WES21AWN,WES21AWN,WEST END AVE & 21ST AVE S WB,WEST END AV & 21ST AV N,36.150628,-86.801112,,,,,,0
WES21AEN,WES21AEN,WEST END AVE & 21ST AVE S EB,WEST END AVE & 21ST AVE N,36.150192,-86.801522,,,,,,
WES23AWN,WES23AWN,WEST END AVE & 23RD AVE S WB,WEST END AV & 23RD AV N,36.149007,-86.804449,,,,,,0
WES23AEN,WES23AEN,WEST END AVE & 23RD AVE S EB,WEST END AV & 23RD AV N,36.148685,-86.804611,,,,,,1
WES25AWN,WES25AWN,WEST END AVE & 25TH AVE S WB,WEST END AV & 25TH AV S,36.147202,-86.808104,,,,,,
WES25AEN,WES25AEN,WEST END AVE & 25TH AVE S EB,WEST END AV & 25TH AV S,36.146854,-86.808497,,,,,,0
WES27AWN,WES27AWN,WEST END AVE & 27TH AVE S WB,WEST END AV & 27TH AV N,36.145648,-86.811401,,,,,,
WES28AEM,WES28AEM,WEST END AVE & 28TH AVE S EB,WEST END AV & 27TH AV N,36.145346,-86.811538,,,,,,1
WES31AEM,WES31AEM,WEST END AVE & 31ST AVE S EB,3028 WEST END AVE & 30TH AVE,36.143233,-86.814581,,,,,,0
WES31AWN,WES31AWN,WEST END AVE & 31ST AVE N WB,3062 WEST END AVE,36.14304,-86.815175,,,,,,0
WESACKEN,WESACKEN,WEST END AVE & ACKLEN PARK DR EB,,36.140666,-86.817509,,,,,,
WESACKWN,WESACKWN,WEST END AVE & ACKLEN PARK DR WB,,36.141069,-86.817404,,,,,,0
WESBOWWN,WESBOWWN,WEST END AVE & BOWLING AVE WB,,36.134804,-86.824957,,,,,,0
WESELMEN,WESELMEN,WEST END AVE & ELMINGTON AVE EB,,36.13499,-86.823993,0,,,,,0
HARWODEN,HARWODEN,HARDING PIKE & WOODMONT BLVD,HARDING BV & LYNWOOD BV,36.123799,-86.84909,,,,,,
HARKENEF,HARKENEF,HARDING PIKE & KENNER AVE EB,4366 HARDING PIKE & KENNER AVE,36.125943,-86.84608,0,,,,,0
WESLEOEN,WESLEOEN,WEST END AVE  & LEONARD AVE EB,,36.132893,-86.829728,0,,,,,
WES440EM,WES440EM,WEST END AVE & I-440 RAMP EB,WEST END AVE & MURPHY RD,36.138301,-86.820055,,,,,,0
WES440WN,WES440WN,WEST END AVE & I-440 RAMP WB,,36.138604,-86.820053,,,,,,0
WESWILEN,WESWILEN,WEST END & WILSON BLVD EB,3918 WEST END AVE & MAYFAIR RD,36.131239,-86.834654,0,,,,,0
WESWILWM,WESWILWM,WEST END AVE & WILSON BLVD WB,WEST END AV & WILSON BV,36.131505,-86.834269,,,,,,0
HARWOOEN,HARWOOEN,HARDING PIKE & WOODLAWN DR EB,HARDING PK & WOODLAWN DR,36.127376,-86.844011,,,,,,
WHALAFSF,WHALAFSF,WHARF AVE AND LAFAYETTE ST SB,WHARF AV & PERKINS ST,36.148211,-86.762682,0,,,,,
WHIBURNN,WHIBURNN,WHITE BRIDGE PIKE & BURGESS AVE NB,WHITEBRIDGE RD & BURGESS AVE,36.144663,-86.857809,,,,,,0
WHICHASF,WHICHASF,WHITE BRIDGE PIKE & CHARLOTTE SHONE,375 WHITE BRIDGE PIKE,36.149179,-86.858044,,,,,,0
WHICORNN,WHICORNN,WHITE BRIDGE PIKE & CORBETT LN NB,WHITE BRIDGE PK & CORBETT LN,36.143085,-86.857569,,,,,,
WHICORSF,WHICORSF,WHITE BRIDGE PIKE & CORBETT LN SB,WHITE BRIDGE & CORBITT,36.143101,-86.8578,,,,,,
WHIFRANN,WHIFRANN,WHITES CREEK PIKE & FRANCIS ST NB,WHITES CREEK PK & FRANCIS ST,36.213771,-86.799842,,,,,,
WHIKNONF,WHIKNONF,WHITE BRIDGE PIKE & KNOB RD NB,205 WHITE BRIDGE PIKE,36.13828,-86.857519,0,,,,,0
WHIKNOSN,WHIKNOSN,WHITE BRIDGE PIKE & KNOB DR SB,WHITE BRIDGE PK & KNOB RD,36.137973,-86.857829,,,,,,
WHIMALSF,WHIMALSF,WHITES CREEK PIKE & MALTA DR SB,,36.216458,-86.802178,,,,,,0
WHIMOONN,WHIMOONN,WHITES CREEK PIKE & MOORMANS ARM RD,WHITES CREEK PK & MOORMANS ANN RD,36.21818,-86.803446,,,,,,0
WHIMOOSN,WHIMOOSN,WHITES CREEK PIKE  MOORMAN'S ARM RD,,36.218387,-86.803708,,,,,,0
WHIVINSF,WHIVINSF,WHITE BRIDGE PIKE & VINE RIDGE DR SB,109 WHITE BRIDGE PIKE,36.133241,-86.858142,0,,,,,0
WHIPOSNN,WHIPOSNN,WHITE BRIDGE PIKE & POST RD NB,WHITE BRIDGE PK & POST RD,36.127999,-86.851772,,,,,,0
WHIPOSSN,WHIPOSSN,WHITE BRIDGE PIKE & POST RD SB,WHITE BRIDGE PK & POST RD,36.128043,-86.852227,,,,,,0
WHIREVNF,WHIREVNF,WHITES CREEK PIKE & REVELS DR NB,WHITES CREEK PK & REVELS DR,36.22152,-86.804949,0,,,,,0
WHITONSN,WHITONSN,WHITES CREEK PIKE & TONEY RD SB,2209 WHITES CREEK PIKE & TONEY RD,36.208433,-86.793774,,,,,,0
WHIVINNN,WHIVINNN,WHITE BRIDGE PIKE & VINERIDGE DR NB,113 WHITE BRIDGE PIKE,36.133821,-86.858048,0,,,,,0
WHILUZNF,WHILUZNF,WHITES CREEK PIKE & LUZON ST NB,US HWY 431 & LUZON ST,36.210243,-86.796294,,,,,,0
WHIAVASN,WHIAVASN,WHITES CREEK PIKE & AVALON DR SB,WHITES CREEK PK & AVALON DR,36.212314,-86.798685,,,,,,
WHIWNSF,WHIWNSF,WHITES CREEK PIKE & W NOCTURNE DR SB,,36.211304,-86.797421,0,,,,,0
WHIWTRSN,WHIWTRSN,WHITES CREEK PIKE & W TRINITY LN SB,2032 WHITES CREEK PIKE & W TRINITY LN,36.207264,-86.791943,0,,,,,0
WOON1SEN,WOON1SEN,WOODLAND ST & S 2ND ST EB,129 WOODLAND ST & 1ST ST S,36.169117,-86.771786,,,,,,0
WOO5SEN,WOO5SEN,WOODLAND ST & S 5TH ST EB,485 WOODLAND ST & 5TH ST S,36.171733,-86.764915,,,,,,0
CHALELEM,CHALELEM,CHARLOTTE PIKE & LELLYETT ST EB,CHARLOTTE PK & OCEOLA AV,36.148932,-86.863642,,,,,,
SHABELWN,SHABELWN,SHACKLEFORD RD & BELMONT BLVD WB,1588 SHACKLEFORD RD & BELMONT BLVD,36.101328,-86.801922,,,,,,0
MEIGS,MEIGS,MEIGS MAGNET SCHOOL,,36.176017,-86.760399,,,,,,
HEAD,HEAD,HEAD MIDDLE SCHOOL,20TH AV N & PEARL ST,36.158034,-86.804426,,,,,,
HBHS,HBHS,HILLSBORO TRANSIT CENTER,3817 HILLSBORO PIKE & GREEN HILLS VLG,36.107575,-86.812719,,,,,,0
EDGHILEN,EDGHILEN,EDGEHILL AVE & HILLSIDE AVE EB,EDGEHILL AV & 9TH AV S,36.141894,-86.781221,0,,,,,
WALMARTC,WALMARTC,WALMART,PARKING LOT & 6TH AVE N,36.132167,-86.906837,,,,,,0
MLK,MLK,MARTIN LUTHER KING SCHOOL,1702 JO JOHNSTON AVE & 17TH AVE,36.161272,-86.800248,,,,,,0
MADTOWE,MADTOWE,MADISON TOWERS,N DUPONT AV,36.267491,-86.699097,,,,,,
ELMACONN,ELMACONN,ELM HILL PIKE & ACORN DR NB,ELM HILL PK & ACORN DR,36.150156,-86.700202,,,,,,0
BNA,BNA,NASHVILLE INTERNATIONAL AIRPORT,BNA PARK DR,36.130815,-86.666128,0,,,,,0
CHEMARWM,CHEMARWM,CHESTNUT ST & MARTIN ST WB,CHESTNUT ST & HUMPHREYS ST,36.14307,-86.770883,,,,,,
BRACRASN,BRACRASN,BRANSFORD AVE & CRAIGHEAD ST SB,,36.126148,-86.766278,,,,,,
PEARL,PEARL,PEARL COHN,,36.164228,-86.815995,,,,,,0
BORHOSP,BORHOSP,METRO BORDEAUX HOSPITAL,1016 CAMILLA CALDWELL LN,36.181248,-86.847705,,,,,,0
SKYLINE,SKYLINE,SKYLINE MEDICAL CENTER WB,RAMP,36.244647,-86.749565,,,,,,0
MTA,MTA,METROPOLITAN TRANSIT AUTHORITY,,36.157604,-86.756053,,,,,,0
OCANOLEN,OCANOLEN,OCALA DR & NOLENSVILLE PIKE EB,,36.051442,-86.714537,,,,,,
TRIHAWM,TRIHAWM,TRINITY LN & HAMPTON ST WB,331 W TRINITY LN,36.20684,-86.78005,,,,,,0
OLDSIL,OLDSIL,OLD MATTHEWS RD & SILAS DR NB,,36.216539,-86.789405,,,,,,
EWICLAEN,EWICLAEN,EWING DR & CLAYMILLE BLVD EB,EWING DR & CLAYMILLE BV,36.231823,-86.801777,,,,,,
EWIVISEN,EWIVISEN,EWING DR & VISTA LN EB,,36.23144,-86.795793,,,,,,
TRIHAMEN,TRIHAMEN,W TRINITY LN & HAMPTON ST EB,327 W TRINITY LN,36.20662,-86.77985,,,,,,0
BRIWEASN,BRIWEASN,BRICK CHURCH PIKE & WEAKLEY AVE SB,BRICK CHURCH PK & WEAKLEY AV,36.198242,-86.77699,,,,,,
ARTS,ARTS,ARTS MAGNET SCHOOL,ARTS SCHOOL RD & 2ND AVE S,36.131395,-86.7404,,,,,,
NOLCOTSN,NOLCOTSN,NOLENSVILLE PIKE & COTTON LN SB,NOLENSVILLE PK & BASS AV,36.071087,-86.72347,,,,,,0
GALWMRT,GALWMRT,WALMART GALLATIN PIKE,,36.307973,-86.685963,,,,,,1
GALPETNN,GALPETNN,GALLATIN AVE & PETWAY AVE NB,,36.186484,-86.747091,,,,,,
GALWILNN,GALWILNN,GALLATIN PIKE & WILEY ST NB,N GALLATIN PK & WILEY ST,36.269054,-86.710519,,,,,,0
GALNESSN,GALNESSN,N GALLATIN PIKE & NESBITT LN SB,GALLATIN PIKE N & NESBITT LN,36.273031,-86.710283,,,,,,0
GALPETSN,GALPETSN,GALLATIN AVE & PETWAY AVE,,36.186758,-86.747165,,,,,,
MAIMCFWN,MAIMCFWN,MAIN ST & MCFERRIN AVE WB,921 MAIN ST & MCFERRIN AVE,36.176783,-86.755336,,,,,,0
LAF5AEN,LAF5AEN,GREYHOUND STATION - LAFAYETTE ST & 5TH AVE S,LAFAYETTE ST & 5TH AV S,36.152481,-86.773315,,,,,,
MURTOWEF,MURTOWEF,MURFREESBORO PIKE & TOWN PARK DR EB,1708 MURFREESBORO PIKE & TOWN PARK DR,36.102724,-86.665866,,,,,,0
LAF5AWN,LAF5AWN,LAFAYETTE ST & 5TH AVE S WB,LAFAYETTE ST & 5TH AV S,36.152481,-86.773181,,,,,,
CHA51AWN,CHA51AWN,CHARLOTTE AVE & 51ST AVE N WB,5082 CHARLOTTE AVE & 51ST AVE,36.152073,-86.84835,,,,,,0
CXO53AVE,CXO53AVE,53RD AVE STATION OUTBOUND,5326 CHARLOTTE AVE & MORROW RD,36.151559,-86.852455,,,,,,1
CXONVLWS,CXONVLWS,NASHVILLE WEST STATION OUTBOUND,6804 CHARLOTTE PIKE,36.134638,-86.888654,,,,,,1
CXIANNEX,CXIANNEX,ANNEX STATION INBOUND,6623 CHARLOTTE PIKE,36.138535,-86.88113,,,,,,1
UNI7AEN,UNI7AEN,UNION ST & 7TH AVE N EB,UNION ST & 7TH AV N,36.163262,-86.783872,,,,,,
6AVDEANN,6AVDEANN,6TH AVE N & DEADERICK ST NB,6TH AV N & DEADERICK ST,36.16466,-86.782651,,,,,,0
THOMUREF,THOMUREF,THOMPSON PL & MURFREESBORO PK EB,,36.126849,-86.710072,0,,,,,
THOPATEF,THOPATEF,THOMPSON PL & PATRICIA DR EB,,36.127139,-86.706915,,,,,,
THOCATEN,THOCATEN,THOMPSON PL & CATINA DR EB,THOMPSON PL & COARSEY DR,36.127213,-86.704016,,,,,,
THOGOOEN,THOGOOEN,THOMPSON PL & GOODBAR DR EB,,36.12719,-86.700762,,,,,,
NXOOAKST,NXOOAKST,OAK STATION OUTBOUND,4TH AV S & OAK ST,36.148469,-86.769085,,,,,,0
NXORAINS,NXORAINS,RAINS STATION OUTBOUND,4TH AV S & RAINS AV,36.140507,-86.763861,,,,,,0
NXOMORTN,NXOMORTN,MORTON STATION OUTBOUND,US HWY 31 ALT & US HWY 41 ALT,36.106158,-86.742904,,,,,,1
NXOVERTS,NXOVERTS,VERITAS STATION OUTBOUND,US HWY 31 ALT & VERITAS ST,36.098019,-86.738758,,,,,,1
NOLBRESN,NOLBRESN,NOLENSVILLE  PK & BREWER DR,US HWY 31 ALT & US HWY 41 ALT,36.053735,-86.715196,,,,,,
NXIMORTN,NXIMORTN,MORTON STATION INBOUND,US HWY 31 ALT & MORTON AVE,36.106591,-86.742863,,,,,,1
NXIJOYNR,NXIJOYNR,JOYNER STATION INBOUND,US HWY 31 ALT & JOYNER AVE,36.116385,-86.747836,,,,,,1
WALWILEF,WALWILEF,WALLACE RD & WILLARD DR EB,,36.079939,-86.703564,,,,,,
WALLINWF,WALLINWF,WALLACE RD & LINBAR DR WB,,36.081379,-86.702372,,,,,,0
LINWALEN,LINWALEN,LINBAR DR & WALLACE RD,LINBAR DR & LARGO DR,36.083418,-86.704722,,,,,,
CXO17AVE,CXO17AVE,17TH AVE STATION OUTBOUND,CHARLOTTE AV & 17TH AV N,36.158874,-86.798114,,,,,,1
CLASHASN,CLASHASN,CLARKSVILLE PIKE & S HAMILTON RD SB,CLARKSVILLE PK & BUENA VISTA PK,36.193698,-86.831449,,,,,,
COUDOANN,COUDOANN,COUNTY HOSPITAL RD & DOAK AVE NB,,36.191285,-86.835779,,,,,,0
COUDOAWM,COUDOAWM,COUNTY HOSPITAL RD & DOAK AVE WB,,36.192437,-86.834602,,,,,,
CAMCOUNN,CAMCOUNN,CAMILLA CALDWELL LN & COUNTY HOSPIT,CAMILLA CALDWELL LN & COUNTY HOSPITAL RD,36.182529,-86.847711,,,,,,
COUHOSEN,COUHOSEN,COUNTY HOSPITAL RD & HOSPITAL LN EB,1449 COUNTY HOSPITAL RD & HOSPITAL LN,36.182501,-86.84584,,,,,,1
COUHYDNN,COUHYDNN,COUNTY HOSPITAL RD & HYDES FERRY RD NB,,36.189409,-86.83773,,,,,,
JOHASHEN,JOHASHEN,JOHN MALLETTE DR & ASHTON AVE EB,,36.194535,-86.837139,0,,,,,0
CLA24AEN,CLA24AEN,CLARKSVILLE PIKE & 24TH AVE N EB,CLARKSVILLE PK & 24TH AV N,36.184729,-86.815769,,,,,,0
BUC22AEN,BUC22AEN,BUCHANAN ST & 22ND AVE N EB,2204 BUCHANAN ST,36.180139,-86.813724,0,,,,,0
BUC16AEN,BUC16AEN,BUCHANAN ST & 16TH AVE N EB,BUCHANAN ST & 16TH AV N,36.179972,-86.809573,0,,0,,,1
8AHARNN,8AHARNN,8TH AVE N & HARRISON ST NB,8TH AV N & HARRISON ST,36.168536,-86.788255,,,,,,
BUCDBTWN,BUCDBTWN,BUCHANAN ST & DR D B TODD JR BLVD WB,1690 BUCHANAN ST & DR DB TODD JR BLVD,36.180123,-86.810917,,,,,,0
HAMHYDWN,HAMHYDWN,S HAMILTON RD & N HYDES FERRY RD WB,S HAMILTON RD & CLARKSVILLE HWY,36.192831,-86.832144,,,,,,
JOHASHWF,JOHASHWF,JOHN MALLETTE DR & ASHTON AVE WB,3474 JOHN MALLETTE DR & ASHTON AVE,36.194509,-86.836841,0,,,,,0
CLAABESN,CLAABESN,CLARKSVILLE PIKE & ABERNATHY RD SB,CLARKSVILLE PK & ABERNATHY RD,36.203239,-86.840636,,,,,,
HARDAVWF,HARDAVWF,HARDING PIKE & DAVIDSON RD WB,,36.114773,-86.861586,,,,,,0
H70VOSWN,H70VOSWN,HIGHWAY 70 S & VOSSLAND DR WB,STATE HWY 1 & MEMPHIS BRISTOL HWY,36.096467,-86.877528,,,,,,
H70BROSN,H70BROSN,HWY 70 S & BROOK HOLLOW RD WB,HIGHWAY 70 S & BROOK HOLLOW RD,36.094568,-86.881598,,,,,,
H70VAUWN,H70VAUWN,HWY 70 S & VAUGHNS GAP RD WB,HIGHWAY 70 S & VAUGHNS GAP RD,36.092753,-86.885343,,,,,,
H70PERWN,H70PERWN,HWY 70S & PERCY WARNER BLVD WB,6596 USHY 70S & PERCY WARNER BLVD,36.084946,-86.89458,,,,,,0
H70CHIWN,H70CHIWN,HWY 70 S & CHIMNEY HILL WB,7015 USHY 70S & CHIMNEY HL,36.076287,-86.915851,,,,,,0
TODBELEN,TODBELEN,TODD PRIES DR & BELLEVUE RD EB,TODD PREIS DR & BELLEVUE RD,36.068821,-86.941555,,,,,,
H70CAREF,H70CAREF,HWY 70 S & CARNAVON PKWY EB,,36.08968,-86.890848,,,,,,0
H70VAUEN,H70VAUEN,HWY 70 S & VAUGHN'S GAP RD EB,HIGHWAY 70 S & VAUGHNS GAP RD,36.092459,-86.885503,,,,,,
H70BROE,H70BROE,HWY 70 S & BROOK HOLLOW RD EB,HIGHWAY 70 S & BROOK HOLLOW RD,36.09421,-86.881912,,,,,,
H70PEREN,H70PEREN,HWY 70 S & PERCY WARNER BLVD EB,HIGHWAY 70 S & PERCY WARNER BV,36.096224,-86.877722,,,,,,
HARCLAEN,HARCLAEN,HARDING PIKE & CLAREDON AVE EB,HARDING PK & CLARENDON AV,36.114288,-86.861833,,,,,,
LEBDISEF,LEBDISEF,LEBANON PIKE & DISPAYNE DR EB,,36.172506,-86.649527,,,,,,
LEBMEDEF,LEBMEDEF,LEBANON PIKE & MEDICAL DR EB,LEBANON RD & WELLINGTON SQ,36.176823,-86.645222,,,,,,
8AVDOUSF,8AVDOUSF,8TH AVE & DOUGLAS AVE SB,8TH AV S & S DOUGLAS AV,36.131361,-86.778931,,,,,,
FRACRASF,FRACRASF,FRANKLIN PK & CRAIGHEAD ST SB,US HWY 31 & STATE HWY 6,36.125798,-86.777029,,,,,,
GRAEXCSM,GRAEXCSM,GRANNY WHITE PK & EXCELLA PL MB,3841 GRANNY WHITE PIKE,36.107131,-86.794446,,,,,,0
8ACHENN,8ACHENN,8TH AVE S & CHESTNUT ST NB,US HWY 31 & 8TH AVE S,36.141543,-86.778565,,,,,,
8ADRENN,8ADRENN,8TH AVE S & DREXELL ST NB,8TH AV S & DREXEL ST,36.152723,-86.779259,,,,,,0
BRIRICNN,BRIRICNN,BRICK CHURCH PIKE & RICHMOND HILL D,BRICK CHURCH PK & RICHMOND HILL DR,36.235746,-86.781093,,,,,,
DICLORSN,DICLORSN,DICKERSON PK & LORRAINE AVE SB,,36.217766,-86.763171,,,,,,
DICROCSF,DICROCSF,DICKERSON PIKE & ROCK ST SB,DICKERSON PK & ROCK ST,36.213706,-86.764598,,,,,,0
DICDONSN,DICDONSN,DICKERSON PK & DONALD ST SB,,36.211723,-86.765295,,,,,,
DICWESNF,DICWESNF,DICKERSON PIKE & WESTCHESTER DR N,3810 DICKERSON PIKE,36.263815,-86.757127,,,,,,0
21SBLASF,21SBLASF,21ST AVE S & BLAIR SB,21ST AV S & BLAIR BV,36.129996,-86.802285,,,,,,1
21AACKNN,21AACKNN,21ST AVE S & ACKLEN AVE NB,21ST AV S & ACKLEN AV,36.135578,-86.800924,0,,,,,0
FAT17SWN,FAT17SWN,FATHERLAND & S 17TH ST,1707 FATHERLAND ST & 17TH ST S,36.173188,-86.739761,,,,,,0
FAT16SWN,FAT16SWN,FATHERLAND ST & S 16TH ST NB,192 16TH ST S & FATHERLAND ST,36.173453,-86.742328,,,,,,0
16SWOONN,16SWOONN,16TH ST & WOODLAND ST NB,8 16TH ST S & WOODLAND ST,36.176802,-86.741874,,,,,,0
N16ORDNN,N16ORDNN,N 16TH ST & ORDWAY PL NB,N 16TH ST & OROWAY PL,36.179699,-86.741437,,,,,,
PORFRANM,PORFRANM,PORTER RD & FRANKLIN AVE NB,,36.183464,-86.732503,,,,,,
PORMCKNN,PORMCKNN,PORTER RD & MCKENNEL DR NB,PORTER RD & STRAIGHTWAY AV,36.192917,-86.726639,,,,,,0
16SSTRSN,16SSTRSN,N 16TH ST & STRATTON AVE SB,N 16TH ST & PORTER RD,36.182324,-86.741177,,,,,,
16SORDSN,16SORDSN,N 16TH ST & ORDWAY PL SB,,36.179851,-86.741537,0,,,,,0
16SWOOSN,16SWOOSN,16TH ST & WOODLAND ST SB,N 16TH ST & PORTER RD,36.177012,-86.741988,,,,,,0
16SFATSN,16SFATSN,16TH ST & FATHERLAND ST SB,190 16TH ST S & FATHERLAND ST,36.173512,-86.742468,,,,,,0
JEF17TWN,JEF17TWN,JEFFERSON ST & 17TH AVE N WB,JEFFERSON ST & 17TH AV N,36.170035,-86.804589,,,,,,
JEF14AEN,JEF14AEN,JEFFERSON ST & 14TH AVE N EB,JEFFERSON ST & 14TH AV N,36.170665,-86.801738,,,,,,
HER12AWN,HER12AWN,HERMAN ST & 12TH AVE N WB,,36.167232,-86.796321,,,,,,
HER14AWN,HER14AWN,HERMAN ST & 14TH AVE N WB,HERMAN ST & 14TH AV N,36.16641,-86.79825,,,,,,
HER17NWN,HER17NWN,HERMAN ST & 17TH AVE N WB,,36.164758,-86.802109,,,,,,
CLI33AW,CLI33AW,CLIFTON AVE & 33RD AVE N WB,CLIFTON AV & 33rd Ave North,36.159145,-86.824989,,,,,,
CLI39AWN,CLI39AWN,CLIFTON AVE & 39TH AVE N WB,CLIFTON AV & 39TH AV N,36.157723,-86.830237,,,,,,
CLI40_WN,CLI40_WN,CLIFTON AVE & 40TH AVE N WB,,36.157159,-86.834129,,,,,,
40ACATNN,40ACATNN,40TH AVE N & CATHERINE JOHNSON PKWY NB,40TH AV N & CATHERINE JOHNSON PW,36.158204,-86.834186,,,,,,
ALBALAEN,ALBALAEN,ALBION ST & ALAMEDA AVE EB,PRESIOR DR & PRESLOR DR,36.161813,-86.835546,,,,,,
ALA39ANN,ALA39ANN,ALAMEDA ST & 39TH AVE N,ALAMEDA ST & 39TH AV N,36.163543,-86.833819,,,,,,
39AJOHNN,39AJOHNN,39TH AVE N & JOHN L DRIVER BLVD NB,39TH AV N & JOHN L DRIVER BV,36.165606,-86.83418,,,,,,
TEN51AWM,TEN51AWM,TENNESSEE AVE & 51ST AVE N WB,TENNESSEE AV & 52ND AV N,36.161002,-86.849615,,,,,,
TEN55AWN,TEN55AWN,TENNESSEE AVE & 55TH AVE N WB,5490 TENNESSEE AVE & 55TH AVE,36.16084,-86.854201,,,,,,0
TENMORWN,TENMORWN,TENNESSEE AVE & MORROW RD WB,TENNESSEE AV & 57TH AV N,36.160713,-86.857962,,,,,,
WAL40AEN,WAL40AEN,WALTER S DAVIS BLVD & 40TH AVE N EB,CENTENNIAL BLVD & 40TH AVE N,36.164497,-86.838576,,,,,,
DRW39ANN,DRW39ANN,WALTER S DAVIS BLVD & 39TH AVE N NB,DR WALTER S DAVIS BLVD & UNNAMED STREET,36.166025,-86.835021,,,,,,
39AJOHSN,39AJOHSN,39TH AVE N & JOHN DRIVER BLVD SB,39TH AV N & JOHN L DRIVER BV,36.165677,-86.834337,,,,,,
39AALASN,39AALASN,39TH AVE N & ALAMEDA ST SB,,36.163749,-86.833864,,,,,,
CLI34AEN,CLI34AEN,CLIFTON AVE & 34TH AVE N EB,CLIFTON AV & 34TH AV N,36.158492,-86.827075,,,,,,
CLI33AEN,CLI33AEN,CLIFTON AVE & 33RD AVE N EB,CLIFTON AV & 33RD AV N,36.159029,-86.82509,,,,,,
32ABATNN,32ABATNN,32ND AVE N & BATAVIA ST NB,32ND AV N & BATAVIA ST,36.160458,-86.824014,,,,,,
HER27AEN,HER27AEN,HERMAN ST & 27TH AVE N EB,2724 HERMAN ST & 27TH AVE,36.16183,-86.81791,0,,,,,2
12ADOUSN,12ADOUSN,12TH AVE S & S DOUGLAS AVE SB,12TH AV S & S DOUGLAS AV,36.130882,-86.788825,,,,,,
MERWILSN,MERWILSN,MERIDIAN ST & WILBURN ST SB,846 MERIDIAN ST & WILBURN ST,36.186071,-86.768216,,,,,,0
MERBERSN,MERBERSN,MERIDIAN ST & BERRY ST SB,,36.181242,-86.768992,,,,,,
SPR1SWN,SPR1SWN,SPRING ST & N 1ST ST WB,,36.17701,-86.774366,,,,,,0
REVROWEF,REVROWEF,Revels Dr & Rowan Dr EB,ROWAN DR & REVELS DR,36.222723,-86.809341,0,,,,,
REVWHIEN,REVWHIEN,REVELS DR & WHITES CREEK PIKE EB,542 REVELS DR,36.221021,-86.80554,0,,,,,0
BAPGOOSN,BAPGOOSN,BAPTIST WORLD CENTER DR & GOOCH ST SB,2092 BAPTIST WORLD CENTER DR & GOOCH ST,36.205894,-86.790681,,,,,,0
BAPSEMSN,BAPSEMSN,BAPTIST WORLD CENTER & SEMINARY SB,BAPTIST WORLD CTR DR & SEMINARY ST,36.20066,-86.786919,0,,,,,0
BAPWEASN,BAPWEASN,BAPTIST WORLD CENTER  DR & WEAKLEY AVE SB,BAPTIST WORLD CTR DR & WEAKLEY,36.196752,-86.782971,,,,,,0
FERBRIWN,FERBRIWN,FERN AVE & BRICK CHURCH PK WB,35 FERN AVE & I 24,36.195711,-86.776388,,,,,,0
WHITONWN,WHITONWN,WHITES CREEK PIKE & TONEY RD WB,WHITES CREEK PK & TONEY RD,36.208556,-86.793926,,,,,,0
WHINOCWN,WHINOCWN,WHITES CREEK PIKE & E NOCTURNE DR NB,2390 WHITES CREEK PIKE & NOCTURNE DR E,36.211336,-86.797259,0,,,,,0
ROWCARWN,ROWCARWN,ROWAN DR & CARVATH DR WB,,36.220705,-86.811294,,,,,,0
10APONNN,10APONNN,10TH AVE N & PONDER PL NB,2292 9TH AVE & 10TH AVE,36.190265,-86.806063,,,,,,1
EDG17AEN,EDG17AEN,EDGEHILL AVE & 17TH AVE S EB,EDGEHILL AV & 17TH AV S,36.143454,-86.794478,,,,,,
ROSGARSN,ROSGARSN,ROSA PARKS BLVD & GARFIELD ST SB,1721 ROSA L PARKS BLVD & GARFIELD ST,36.180745,-86.796586,0,,,,,1
21SWESSN,21SWESSN,21ST AVE S & WEST END AVE SB,21ST AV N & WEST END,36.15081,-86.801524,,,,,,0
LEBOLDSF,LEBOLDSF,LEBANON PIKE & OLD HICKORY BLVD SB,,36.197061,-86.621058,,,,,,
3AVMADNF,3AVMADNF,3RD AVE N & MADISON ST NB,3RD AV N & MONROE ST,36.176882,-86.785814,,,,,,
3AVTAYNN,3AVTAYNN,3RD AVE N & TAYLOR ST NB,3RD AV N & TAYLOR ST,36.179259,-86.787365,,,,,,
3ACOFNN,3ACOFNN,3RD AVE N & COFFEE ST NB,3RD AV N & COFFEE ST,36.186852,-86.793303,,,,,,1
BULJONWN,BULJONWN,BULLOCK AVE & JONES AVE,,36.21566,-86.755942,,,,,,
JONJONS,JONJONS,JONES AVE & JONES CIR SB,JONES AV & JONES CR,36.208892,-86.757212,,,,,,
JONTRISN,JONTRISN,JONES AVE & E TRINITY LN SB,,36.205337,-86.757676,,,,,,
JONNORNN,JONNORNN,JONES AVE & NORTON AVE NB,,36.20725,-86.757426,,,,,,
JONJONF,JONJONF,JONES AVE & JONES CIR NB,JONES AV & JONES CR,36.208884,-86.757078,,,,,,
ELMHENWN,ELMHENWN,ELM HILL PIKE & HENEY DR WB,ELM HILL PK & HENEY DR,36.151357,-86.671109,,,,,,
ELMARWWF,ELMARWWF,ELM HILL PK & AIRWAYS CIR WB,ELM HILL PK & AIRWAYS CR,36.152308,-86.681416,,,,,,0
ELMMASEN,ELMMASEN,ELMHILL PK & MASSMAN DR EB,ELM HILL PK & MASSMAN DR,36.14472,-86.711248,,,,,,
ELMARWEF,ELMARWEF,ELM HILL PK & AIRWAYS CR EB,2522 ELM HILL PIKE & AIRWAYS CIR,36.151926,-86.680505,,,,,,0
FORFORSF,FORFORSF,FOREST PARK & FOREST PARK APARTMENT,FOREST PARK RD & COVENTRY WOODS DR,36.257763,-86.704105,,,,,,0
NEETAHEN,NEETAHEN,NEELYS BEND RD & TAHLENA AVE EB,,36.25148,-86.691662,,,,,,
NEECANEN,NEECANEN,NEELYS BEND RD & CANTON PASS,NEELYS BEND RD & COGGIN PA,36.242883,-86.676689,,,,,,
NEEFOREF,NEEFOREF,NEELYS BEND RD & FOREST PARK RD EB,511 NEELYS BEND RD & MARGARET ST,36.25534,-86.703941,0,,,,,0
GALCONSF,GALCONSF,GALLATIN PK & CONFERENCE DR SB,2054 GALLATIN PIKE N & TWIN HILLS DR,36.30231,-86.692728,,,,,,0
NEERANEN,NEERANEN,NEELYS BEND RD & RANDY RD EB,,36.252256,-86.694108,0,,,,,0
BRIWORSN,BRIWORSN,BRIARVILLE RD & CREATIVE WAY SB,BRIARVILLE RD & CHERON RD RAMP,36.242637,-86.736663,,,,,,0
51AILLNF,51AILLNF,51ST AVE N & ILLINOIS AVE NB,ILLINOIS AV & 49TH AV N,36.15788,-86.848785,,,,,,
MORGEOSN,MORGEOSN,MORROW RD & GEORGIA AVE SB,,36.155318,-86.8529,,,,,,
MORILLSN,MORILLSN,MORROW RD & ILLINOIS AVE SB,MORROW RD & UNKNOWN AL,36.157518,-86.853558,,,,,,
3AGARSF,3AGARSF,3RD AVE N & GARFIELD ST SB,3RD AV N & GARFIELD ST,36.183033,-86.789923,,,,,,1
8ASDIVNN,8ASDIVNN,8TH AVE S & DIVISION ST NB,US HWY 31 & 8TH AVE S,36.149624,-86.779058,,,,,,
BRO2AWN,BRO2AWN,BROADWAY AVE & 2ND AVE N WB,BROADWAY & 2ND AV N,36.161991,-86.775075,0,,,,,0
HERPEAWN,HERPEAWN,HERMITAGE AVE & PEABODY ST WB,HERMITAGE AV & LEA AV,36.157392,-86.770331,,,,,,
HERPEAEN,HERPEAEN,HERMITAGE AVE & PEABODY ST EB,,36.157514,-86.770794,,,,,,0
WHIPIESN,WHIPIESN,WHITES CREEK PIKE & PIERPOINT DR SB,WHITES CREEK PK & CLAYMILLE BV,36.213948,-86.800167,,,,,,0
BRIFERSN,BRIFERSN,BRICK CHURCH PIKE & FERN AVE SB,,36.195857,-86.776757,,,,,,
BAPVASWN,BAPVASWN,BAPTIST WORLD CENTER DR & VASHTI ST WB,BAPTIST WORLD CTR DR & WILLIS ST,36.194859,-86.779706,,,,,,
BRKFERNN,BRKFERNN,BRICK CHURCH PIKE & FERN AVE NB,1202 BRICK CHURCH PIKE & FERN AVE,36.195512,-86.776677,,,,,,0
WHIAVANN,WHIAVANN,WHITES CREEK PIKE & AVALON DR NB,WHITES CREEK PK & AVALON DR,36.212296,-86.798483,,,,,,
LEBDONWN,LEBDONWN,LEBANON PIKE & DONELSON PIKE WB,2778 LEBANON PIKE & DONELSON PIKE,36.167648,-86.662889,,,,,,0
21ASTASN,21ASTASN,21ST AVE N & STATE ST SB,21ST AV N & STATE ST,36.153391,-86.803474,,,,,,
21ACHUSF,21ACHUSF,21ST AVE N & CHURCH ST SB,21ST AV N & CHURCH ST,36.152174,-86.802546,,,,,,
ROSEPARK,ROSEPARK,ROSE PARK MAGNET SCHOOL,,36.142642,-86.780897,,,,,,
CXORICHL,CXORICHL,46TH AVE/RICHLAND PARK STATION OUTBOUND,4582 CHARLOTTE AVE & 46TH AVE,36.152286,-86.842032,,,,,,1
N1SOLDNM,N1SOLDNM,N 1ST ST & OLDHAM ST NB,1ST ST N,36.175433,-86.77432,0,,,,,0
CHE4AEN,CHE4AEN,CHESTNUT ST & 4TH AVE  S EB,CHESTNUT ST & 4TH AV S,36.144846,-86.766756,,,,,,
CHE8AAEF,CHE8AAEF,CHESTNUT ST & 8TH AVE S EB,EDGEHILL AV & 8TH,36.141666,-86.778257,,,,,,0
8AHARSN,8AHARSN,8TH AVE N  & HARRISON ST SB,8TH AV N & HARRISON ST,36.168626,-86.788446,,,,,,0
HAR8AEN,HAR8AEN,HARRISON ST & 8TH AVE N EB,HARRISON ST & 8TH AV N,36.168492,-86.788412,,,,,,
12ADIVSF,12ADIVSF,12TH AVE S & DIVISION ST SB,761 12TH AVE & I 40,36.150546,-86.784502,,,,,,0
OAKBULNN,OAKBULNN,OAKWOOD AVE & BULLOCK AVE NB,,36.215088,-86.753136,,,,,,
WHGRENN,WHGRENN,WHITES CREEK PIKE & GREEN LN NB,WHITES CREEK PK & GREEN LN,36.235665,-86.816398,,,,,,
JAM7AVEN,JAM7AVEN,JAMES ROBERTSON PKWY & 7TH AVE N,,36.168118,-86.785833,,,,,,0
8AVUNINN,8AVUNINN,8TH AVE N & UNION ST NB,8TH AV N & UNION ST,36.162858,-86.784621,,,,,,
HER10AEN,HER10AEN,HERMAN ST & 10TH AVE N EB,HERMAN ST & WARREN ST,36.168599,-86.792855,,,,,,0
ABBANEN,ABBANEN,ABBOTT MARTIN RD & BANDYWOOD DR EB,,36.106102,-86.816307,,,,,,
DRDCHASN,DRDCHASN,DR DB TODD JR BLVD & CHARLOTTE AVE SB,DR D B TODD JR BV & CHARLOTTE AV,36.158142,-86.800279,,,,,,
HARMETEF,HARMETEF,HARDING PL & METROPLEX DR EB,HARDING PL & PARMAN PL,36.086689,-86.69518,,,,,,
JAM5AEN,JAM5AEN,JAMES ROBERTSON PKWY & 5TH AVE N EB,JAMES ROBERTSON PW & 5TH AV N,36.16867,-86.78388,,,,,,
OLDI40NN,OLDI40NN,OLD HICKORY BLVD & I-40 NB,STATE HWY 251 & ROCKY LN,36.108089,-86.922289,0,,,,,
CLA23AEN,CLA23AEN,CLARKSVILLE PIKE & 23RD AVE N EB,,36.18414,-86.814736,,,,,,
KINMEAEN,KINMEAEN,KINGS LN & MEADOW HILL DR EB,,36.220147,-86.825067,,,,,,0
MCSMJ,MCSMJ,MT. JULIET STATION,,36.199384,-86.517,0,,,,,0
MCSMS,MCSMS,MARTHA STATION,,36.228922,-86.425777,0,,,,,0
MCSLB,MCSLB,LEBANON STATION,,36.212085,-86.29724,0,,,,,
MCSRVRF,MCSRVRF,RIVERFRONT STATION,,36.161803,-86.773763,0,,,,,
MCSDONEL,MCSDONEL,DONELSON STATION,NASHVILLE & EASTERN RR,36.167003,-86.666539,0,,,,,1
MCSHERM,MCSHERM,HERMITAGE STATION,,36.190234,-86.605609,0,,,,,1
LEBANDEN,LEBANDEN,LEBANON PIKE & ANDREW JACKSON PKWY,LEBANON PK,36.215056,-86.598446,,,,,,
SMYPNR,SMYPNR,SMYRNA STARS & STRIKES PARK AND RIDE,NOLAN & LOWRY,35.993176,-86.526609,0,,,,,0
MTSU,MTSU,M.T.S.U. CAMPUS PARKING LOT,,35.850837,-86.370751,0,,,,,
ANDTYLNF,ANDTYLNF,ANDREW JACKSON PKWY & TYLER DR NB,ANDREW JACKSON PW & WEBER RD,36.19749,-86.60845,0,,,,,
ANDRACNN,ANDRACNN,ANDREW JACKSON PKWY & RACHEL DONELSON PASS NB,ANDREW JACKSON PW & RACHEL DONELSON PA,36.200297,-86.607804,,,,,,
ANDRVWNN,ANDRVWNN,ANDREW JACKSON PKWY & RACHELS VIEW NB,ANDREW JACKSON PW & RACHELS VIEW,36.203505,-86.606656,,,,,,
ANDHIGNN,ANDHIGNN,ANDREW JACKSON PKWY & HIGHLAND VIEW DR NB,ANDREW JACKSON PW & RACHELS TL,36.206709,-86.605582,,,,,,0
ANDALBSF,ANDALBSF,ANDREW JACKSON PKWY & ALBANY DR SB,ANDREW JACKSON PW & DES MOINES DR,36.210368,-86.600719,0,,,,,
ANDHIGSN,ANDHIGSN,ANDREW JACKSON PKWY & HIGHLAND VIEW DR SB,ANDREW JACKSON PW & HIGHLAND VIEW DR,36.20704,-86.605671,,,,,,
ANDRVISF,ANDRVISF,ANDREW JACKSON & RACHELS VIEW SB,ANDREW JACKSON PW & RACHELS VIEW,36.203518,-86.606854,,,,,,
ANDTYLSN,ANDTYLSN,ANDREW JACKSON PKWY & TYLER DR SB,ANDREW JACKSON PW & RACHELS VIEW,36.197588,-86.608678,,,,,,
12ACARNN,12ACARNN,12TH AVE S & CARUTHERS AVE NB,12TH AV S & CARUTHERS AV,36.125676,-86.789251,,,,,,
MCGSTRWN,MCGSTRWN,MCGAVOCK PIKE & STRATFORD AVE WB,MCGAVOCK PK & STRATFORD AV,36.208029,-86.716987,,,,,,
PREWILNN,PREWILNN,PREMIER DR & WILCLAY DR NB,PREMIER DR & 48TH AV N,36.144455,-86.880236,,,,,,1
21ASCASM,21ASCASM,21ST AVE S & SCARRITT PL SB,21ST AV S & UNKNOWN AL,36.145382,-86.799742,,,,,,0
CXICENTE,CXICENTE,23RD AVE / CENTENNIAL STATION INBOUND,2257 CHARLOTTE AVE & 23RD AVE,36.155808,-86.809191,,,,,,1
21WE,21WE,21ST AVE PAST WEST END AVE SB,,36.148963,-86.800132,0,,,,,0
WG16,WG16,WEDGEWOOD AVE & 16TH AVE EB,WEDGEWOOD AV & 16TH AV S,36.136293,-86.794656,,,,,,0
BAUBELWF,BAUBELWF,BAUGH RD & BELLVUE RD WB,805 TODD PREIS DR & BAUGH RD,36.068963,-86.941707,,,,,,0
NXOJOYNR,NXOJOYNR,JOYNER STATION OUTBOUND,NOLENSVILLE PK & JOYNER AV,36.116571,-86.748178,,,,,,
LINWALWM,LINWALWM,LINBAR DR & WALLACE RD WB,4916 LINBAR DR,36.083421,-86.703471,,,,,,0
NOLCOTNM,NOLCOTNM,NOLENSVILLE PK & COTTON LN,,36.071618,-86.723594,,,,,,0
NOLWOONF,NOLWOONF,WOODYCREST STATION INBOUND,US HWY 31 ALT & WOODYCREST AVE,36.13162,-86.756438,,,,,,0
NXILAFYT,NXILAFYT,LAFAYETTE STATION INBOUND,2ND AV S & CAMERON ST,36.150359,-86.76764,,,,,,1
NOLMCMNN,NOLMCMNN,NOLENSVILLE PIKE & MCMURRAY DR NB,US HWY 31 ALT & MCMURRAY DR,36.061245,-86.716482,,,,,,0
ANNPREEF,ANNPREEF,ANNEX AVE & PREMIER DR EB,ANNEX AV & OLD HICKORY BV,36.140711,-86.882851,,,,,,
PORBRANM,PORBRANM,PORTER RD & BRANCH ST NB,PORTER RD & TURNER ST,36.194256,-86.725595,,,,,,
PORRIVEN,PORRIVEN,PORTER RD & RIVERSIDE DR EB,PORTER RD & PORTER AV,36.195265,-86.724159,,,,,,
MCGSTRWM,MCGSTRWM,MCGAVOCK PIKE & STRATFORD AVE WB,MCGAVOCK PK,36.207101,-86.719288,,,,,,
SHE17SWN,SHE17SWN,SHELBY AVE & S 17TH ST WB,,36.170314,-86.740096,,,,,,
SHE8SWN,SHE8SWN,SHELBY AVE & S 8TH ST WB,813 SHELBY AVE & 8TH ST S,36.170085,-86.755978,,,,,,0
5SFATNN,5SFATNN,S 5TH ST & FATHERLAND ST NB,505 FATHERLAND ST & 5TH ST S,36.169807,-86.763406,,,,,,0
CLAASHSN,CLAASHSN,CLARKSVILLE PIKE & ASHLAND CITY HWY SB,3707 CLARKSVILLE PIKE & RAMP,36.197941,-86.837791,0,,,,,0
CLAMANSF,CLAMANSF,CLARKSVILLE PIKE & MANCHESTER AVE S,CLARKSVILLE PK & MANCHESTER AV,36.195143,-86.833784,,,,,,
KINCLAW,KINCLAW,KINGS LN & CLARKSVILLE PK WB,KINGS LN & PEWITT RD,36.218661,-86.83646,,,,,,
CRECRESN,CRECRESN,CREEKWOOD & CREEKLAND CT SB,,36.216897,-86.846225,,,,,,
CRECRWSN,CRECRWSN,CREEKWOOD & CREEKWAY CT SB,,36.21387,-86.845942,,,,,,
TIMFAISN,TIMFAISN,TIMOTHY DR & FAIRVIEW DR SB,,36.212166,-86.844784,,,,,,
17AJACNN,17AJACNN,17TH AVE N & JACKSON ST NB,17TH AV N & JACKSON ST,36.166445,-86.803208,,,,,,
44AALBNM,44AALBNM,44TH AVE N & ALBION ST NB,44TH AV N & UNKNOWN AL,36.162353,-86.840033,,,,,,
ALBALAWM,ALBALAWM,ALBION ST & ALAMEDA AVE WB,1068 ALBION ST & ALAMEDA ST,36.161785,-86.835907,,,,,,1
CLIINDEN,CLIINDEN,CLIFTON AVE & INDIANA AVE EB,,36.157777,-86.829643,,,,,,1
HER16AEN,HER16AEN,HERMAN ST & 16TH AVE N EB,HERMAN ST & 16TH AV N,36.165374,-86.800325,,,,,,0
JEF21AEN,JEF21AEN,JEFFERSON ST & 21ST AVE N EB,JEFFERSON ST & 21ST AV N,36.169007,-86.809693,,,,,,
LISVERNN,LISVERNN,LISCHEY AVE & VERNON WINFREY AVE NB,,36.188429,-86.764075,,,,,,
JONDELSM,JONDELSM,JONES AVE & DELLWAY DR SB,JONES AV & VERNON WINFREY AV,36.212017,-86.756818,,,,,,
LISRICSM,LISRICSM,LISCHEY AVE & RICHARDSON AVE SB,LISCHEY AV & UNKNOWN AL,36.191857,-86.763648,,,,,,
21AFAISN,21AFAISN,21ST AVE S & FAIRFAX AVE SB,21ST AV S & MAGNOLIA BV,36.134265,-86.801283,,,,,,
12AASHSF,12AASHSF,12TH AVE S & ASHWOOD AVE SB,12TH AV S & ASHWOOD AV,36.128444,-86.789105,,,,,,
GRAKIRSN,GRAKIRSN,GRANNY WHITE PIKE & KIRKWOOD AVE SB,12TH AV S & KIRKWOOD AV,36.120943,-86.790663,,,,,,
DEM10AEM,DEM10AEM,DEMONBREUN ST & 10TH AVE S,DEMONBREUN ST & 9TH AV S,36.156152,-86.782377,,,,,,
THOEUGEN,THOEUGEN,THOMPSON LN & EUGENIA AVE EB,,36.110999,-86.754673,,,,,,
CXINVLWS,CXINVLWS,NASHVILLE WEST STATION INBOUND,6803 CHARLOTTE PIKE & HILLWOOD DR W,36.134441,-86.888456,,,,,,0
LEBQUIEN,LEBQUIEN,LEBANON PIKE & QUINN CR EB,US HWY 70 & LEBANON PIKE,36.159402,-86.703932,0,,,,,
LEBLISWF,LEBLISWF,LEBANON PIKE & LISA LN  WB,US HWY 70 & LEBANON PIKE,36.159125,-86.704682,0,,,,,
CLAWHASN,CLAWHASN,CLARKSVILLE PIKE & W. HAMILTON AVE SB,CLARKSVILLE PK & UNKNOWN,36.207831,-86.839921,0,,,,,0
DICOTRSN,DICOTRSN,DICKERSON PIKE & OLD TRINITY LN SB,DICKERSON PK & OLD TRINITY LN,36.206868,-86.768268,0,,,,,0
MTVCURSN,MTVCURSN,MT VIEW RD & CURTIS HOLLOW RD SB,,36.051031,-86.651247,,,,,,
MCC4_23,MCC4_23,CENTRAL 4TH AVE - BAY 23,UNNAMED & 4TH AVE N,36.166786,-86.781435,,,0,MTAMCC,,1
MCC4_21,MCC4_21,CENTRAL 4TH AVE - BAY 21,MUSIC CITY CENTRAL 4TH CIR & 4TH AVE N,36.166688,-86.781614,,,0,MTAMCC,,1
MCC4_19,MCC4_19,CENTRAL 4TH AVE - BAY 19,UNNAMED & 4TH AVE N,36.166581,-86.781917,0,,0,MTAMCC,,1
MCC4_15,MCC4_15,CENTRAL 4TH AVE - BAY 15,UNNAMED & 4TH AVE N,36.166322,-86.781446,,,0,MTAMCC,,1
MCC4_13,MCC4_13,CENTRAL 4TH AVE - BAY 13,UNNAMED & 4TH AVE N,36.16642,-86.781199,,,0,MTAMCC,,1
MCC4_24,MCC4_24,CENTRAL 4TH AVE - BAY 24,UNNAMED & 4TH AVE N,36.166751,-86.781412,,,0,MTAMCC,,1
MCC4_22,MCC4_22,CENTRAL 4TH AVE - BAY 22,UNNAMED & 4TH AVE N,36.166643,-86.781659,,,0,MTAMCC,,1
MCC4_20,MCC4_20,CENTRAL 4TH AVE - BAY 20,UNNAMED & 4TH AVE N,36.166545,-86.781895,,,0,MTAMCC,,1
MCC4_18,MCC4_18,CENTRAL 4TH AVE - BAY 18,MUSIC CITY CENTRAL 4TH CIR & MUSIC CITY CENTRAL 5TH CIR,36.166233,-86.781827,,,0,MTAMCC,,1
MCC4_14,MCC4_14,CENTRAL 4TH AVE - BAY 14,UNNAMED & 4TH AVE N,36.166456,-86.781222,,,0,MTAMCC,,1
MCC5_6,MCC5_6,CENTRAL 5TH AVE - BAY 6,UNNAMED & 5TH AVE N,36.166501,-86.781233,,,0,MTAMCC,,1
MCC5_1,MCC5_1,CENTRAL 5TH AVE - BAY 1,MUSIC CITY CENTRAL 5TH CIR & 5TH AVE N,36.166215,-86.781682,,,0,MTAMCC,,1
MCC5_8,MCC5_8,CENTRAL 5TH AVE - BAY 8,UNNAMED & 5TH AVE N,36.166768,-86.781424,,,0,MTAMCC,,1
MCC5_5,MCC5_5,CENTRAL 5TH AVE - BAY 5,MUSIC CITY CENTRAL 5TH CIR & 5TH AVE N,36.166456,-86.781188,,,0,MTAMCC,,1
MCC5_2,MCC5_2,CENTRAL 5TH AVE - BAY 2,,36.166259,-86.781861,,,0,MTAMCC,,1
MCC5_7,MCC5_7,CENTRAL 5TH AVE - BAY 7,UNNAMED & 5TH AVE N,36.166804,-86.781446,,,0,MTAMCC,,1
MCC5_11,MCC5_11,CENTRAL 5TH AVE - BAY 11,MCC - BAY 11 & 5TH AVE N,36.16659,-86.781996,,,0,MTAMCC,,1
MCC5_9,MCC5_9,CENTRAL 5TH AVE - BAY 9,UNNAMED & 5TH AVE N,36.166706,-86.781693,,,0,MTAMCC,,1
MCC5_12,MCC5_12,CENTRAL 5TH AVE - BAY 12,UNNAMED & 5TH AVE N,36.166554,-86.781973,,,0,MTAMCC,,1
MCC5_10,MCC5_10,CENTRAL 5TH AVE - BAY 10,UNNAMED & 5TH AVE N,36.16667,-86.78167,,,0,MTAMCC,,1
MCC5_4,MCC5_4,CENTRAL 5TH AVE - BAY 4,UNNAMED & 5TH AVE N,36.166402,-86.78148,,,0,MTAMCC,,1
MURMARNN,MURMARNN,MURFREESBORO PIKE & MARTWAY DR NB,2513 MURFREESBORO PIKE & MARTWAY DR,36.078277,-86.642784,,,,,,0
MURSUNEF,MURSUNEF,MURFREESBORO PIKE & SUNSET ST EB,,36.017932,-86.568408,,,,,,
MURREBWF,MURREBWF,MURFREESBORO PIKE & REBECCA WAY WB,,36.018361,-86.568116,,,,,,
VILMOUEF,VILMOUEF,VILLAGE TRL & MOUND CT EB,VILLAGE TRL & HAWK VIEW CT,36.246878,-86.775413,,,,,,
2ASTONF,2ASTONF,2ND AVE & STOCKYARD BLVD NB,2ND AVE N & STOCKYARD ST,36.173053,-86.782071,0,,,,,0
2AVJUNNN,2AVJUNNN,2ND AVE N & JUNIOR GILLIAM WAY NB,997 2ND AVE & JACKSON ST,36.17435,-86.782921,0,,,,,0
2AGAYNM,2AGAYNM,2ND AVE & GAY ST NB,2ND AVE N & GAY ST,36.169688,-86.779909,,,,,,
LEBFAIWF,LEBFAIWF,LEBANON PIKE & FAIRWAY WB,2364 LEBANON PIKE,36.169031,-86.683471,,,,,,0
6AVDEASN,6AVDEASN,6TH AVE & DEADERICK ST SB,6TH AVE N & UNION ST,36.16483,-86.782945,,,,,,
LAFEWIEN,LAFEWIEN,LAFAYETTE ST & EWING AVE SB,,36.15333,-86.775805,,,,,,0
SOUPRENN,SOUPRENN,SOUTH PRECINCT NB,EZELL PIKE & HARDING PL,36.089014,-86.688105,0,,,,,0
HAREZEWF,HAREZEWF,HARDING PL & EZELL PK WB,HARDING PL & JONQUIL DR,36.089125,-86.689419,,,,,,
HARANTWF,HARANTWF,HARDING PL & ANTIOCH PK WB,HARDING PL & ANTIOCH PIKE,36.087288,-86.692935,,,,,,1
HARMETWN,HARMETWN,HARDING PL & METROPLEX DR WB,,36.086917,-86.695668,,,,,,
HARANTEN,HARANTEN,HARDING PL & ANTIOCH PK EB,HARDING PL & ANTIOCH PIKE,36.087226,-86.692475,,,,,,0
HARLINEF,HARLINEF,HARDING PL & LINBAR DR EB,STATE HWY 255 & HARDING PL,36.084396,-86.704816,,,,,,
HARHUMEF,HARHUMEF,HARDING PL & HUMBER DR EB,HARDING PL & STATE HWY 255,36.081242,-86.714715,,,,,,
GRAMAPNF,GRAMAPNF,GRANNYWHITE PIKE & MAPLEHURST AVE N,,36.104763,-86.79612,,,,,,
GRAGRANN,GRAGRANN,GRANNY WHITE PIKE & GRANDVIEW DR NB,3811 GRANNY WHITE PIKE & GRANDVIEW DR,36.107568,-86.794045,,,,,,0
KINTEMWF,KINTEMWF,KINGS LN & TEMPLE CHURCH PARK AND RIDE WB,KINGS LN & CLARKSVILLE PIKE,36.217997,-86.843251,0,,,,,
1AVSHESN,1AVSHESN,1ST AVE & SHELBY PED BRIDGE SB,1ST AVE S & #13 ALY,36.161491,-86.77392,,,,,,
WOON1SWF,WOON1SWF,WOODLAND ST & N 1ST ST WB,,36.168965,-86.772827,,,,,,0
MONTVIEW,MONTVIEW,HWY 70 S & MONTVIEW CONDOS WB,6823 USHY 70S,36.079821,-86.903964,,,,,,0
GXO7AVEF,GXO7AVEF,MAIN STREET STATION OUTBOUND,809 MAIN ST & NEILL AVE,36.175601,-86.757931,,,,,,1
GXI7AVEN,GXI7AVEN,MAIN STREET STATION INBOUND,811 MAIN ST & NEILL AVE,36.17582,-86.757864,,,,,,0
GXOFIVEF,GXOFIVEF,FIVE POINTS STATION OUTBOUND,158 GALLATIN AVE,36.179433,-86.750111,,,,,,1
GXIFIVEN,GXIFIVEN,FIVE POINTS STATION INBOUND,172 GALLATIN AVE,36.179753,-86.750216,,,,,,1
GXOEASTF,GXOEASTF,EASTLAND STATION OUTBOUND,706 GALLATIN AVE & EASTLAND AVE,36.184134,-86.748065,,,,,,1
GXIEASTN,GXIEASTN,EASTLAND STATION INBOUND,,36.183487,-86.748559,,,,,,1
GXODOUGN,GXODOUGN,DOUGLAS STATION OUTBOUND,1312 GALLATIN AVE & STRAIGHTWAY AVE,36.193224,-86.743976,,,,,,1
GXIDOUGN,GXIDOUGN,DOUGLAS STATION INBOUND,1302 GALLATIN AVE & DOUGLAS AVE,36.192883,-86.744396,,,,,,1
GXOGREEN,GXOGREEN,GREENFIELD STATION OUTBOUND,3405 GALLATIN PIKE & HOME RD,36.21007,-86.733544,,,0,,,1
GXIGREEF,GXIGREEF,GREENFIELD STATION INBOUND,3407 GALLATIN PIKE & HOME RD,36.210362,-86.733625,,,,,,1
GXOINGLN,GXOINGLN,INGLEWOOD STATION OUTBOUND,4338 GALLATIN PIKE & CALVERT ST,36.225893,-86.725344,0,,,,,0
GXIEHILF,GXIEHILF,EAST HILL STATION INBOUND,,36.203663,-86.738539,,,,,,1
GXIINGF,GXIINGF,INGLEWOOD STATION INBOUND,,36.224016,-86.725718,,,,,,1
GXOWALTF,GXOWALTF,WALTON STATION OUTBOUND,1501 GALLATIN PIKE & WALTON LANE,36.238619,-86.723813,,,,,,
GXIWALTF,GXIWALTF,WALTON STATION INBOUND,,36.23806,-86.724213,,,,,,1
GXODUEWF,GXODUEWF,DUE WEST STATION OUTBOUND,1151 GALLATIN PIKE S,36.248649,-86.719778,,,,,,1
GXOEDGEF,GXOEDGEF,EDGEMEADE STATION OUTBOUND,,36.279747,-86.708554,,,,,,0
GXIEDGEN,GXIEDGEN,EDGEMEADE STATION INBOUND,,36.27989,-86.708677,,,,,,0
GXOMYANN,GXOMYANN,MYATT STATION OUTBOUND,,36.295411,-86.700358,,,,,,0
GXIMYASF,GXIMYASF,MYATT STATION INBOUND,,36.295703,-86.700551,,,,,,0
GXORIVEN,GXORIVEN,RIVERGATE STATION OUTBOUND,,36.300827,-86.694508,,,,,,1
GXIRIVEF,GXIRIVEF,RIVERGATE STATION INBOUND,,36.30047,-86.69561,0,,,,,0
GXIDUESN,GXIDUESN,DUE WEST STATION INBOUND,,36.24887,-86.719915,,,,,,1
BRO12AEF,BRO12AEF,BROADWAY AVE & 12TH AVE EB,1232 BROADWAY AVE & 12TH AVE,36.15665,-86.787086,0,,,,,0
HILLOMNF,HILLOMNF,HILLSBORO PIKE & LOMBARDY AVE NB,US HWY 431 & LOMBARDY AVE,36.120879,-86.807759,,,,,,
HENKOHPR,HENKOHPR,HENDERSONVILLE KOHLS PARK AND RIDE,,36.332904,-86.624374,0,,,,,
MTAMCC,MTAMCC,CENTRAL,UNNAMED,36.166527,-86.781468,0,,1,,,0
DOLL,DOLL,NOLENSVILLE PIKE & HICKORYVIEW DR,,36.048934,-86.713854,,,,,,0
WHALAFNN,WHALAFNN,WHARF AVE AND LAFAYETTE ST NB,CHARLES E DAVIS BLVD & PERKINS ST,36.148524,-86.762423,0,,,,,
5AVCHANN,5AVCHANN,5TH AVE & CHARLOTTE AVE NB,5TH AVE N & CHARLOTTE AVE,36.165679,-86.781727,,,,,,
7AVHARNN,7AVHARNN,7TH & HARRSION NB,708 7TH AVE,36.16854,-86.786736,,,,,,
BRAWIRSF,BRAWIRSF,BRANSFORD AVE & WEST IRIS DR SB,2809 BRANSFORD AVE,36.115572,-86.76656,,,,,,0
GXOMADWG,GXOMADWG,MADISON STATION OUTBOUND,665 GALLATIN PIKE S & NEELYS BEND RD,36.256502,-86.71411,,,,,,1
GXIMADLB,GXIMADLB,MADISON STATION INBOUND,,36.257412,-86.714068,,,,,,1
ROWCROWN,ROWCROWN,ROWAN DR & CROUCH DR WB,,36.219096,-86.817692,,,,,,
LEBCRAEN,LEBCRAEN,LEBANON PIKE & CRAIGMEADE DR EB,LEBANON RD & US HWY 70,36.167908,-86.691479,,,,,,
BRALIGSF,BRALIGSF,BRANSFORD AVE & LIGON DR SB,BRANSFORD AVE & BERRY RD,36.121755,-86.765561,,,,,,0
4AMCCPLZ,4AMCCPLZ,4TH AVE & MCC PLAZA,RAMP & 4TH AVE N,36.167286,-86.781334,,,,,,0
HAR5AEN,HAR5AEN,HARRISON ST & 5TH AVE EB,,36.170108,-86.784722,,,,,,0
BRO3AWN,BRO3AWN,BROADWAY AVE & 3RD AVE WB,US HWY 70 & 3RD AVE N,36.161616,-86.77595,,,,,,
12ALAUNN,12ALAUNN,12TH AVE & LAUREL ST NB,12TH AVE S & LAUREL ST,36.15358,-86.785484,,,,,,
BRAHEANF,BRAHEANF,BRANSFORD AVE & HEATHER PL NB,,36.113067,-86.766875,,,,,,0
POWPOWSN,POWPOWSN,POWELL AVE & POWELL PL SB,,36.108423,-86.765856,,,,,,
ARDMcGSW,ARDMcGSW,ARDEE AVE & MCGAVOCK PIKE SB,1480 ARDEE AVE,36.2104,-86.714225,,,,,,
CHTWRSSE,CHTWRSSE,CHEYENNE BLVD SENIOR TOWERS,,36.254719,-86.672748,,,,,,
OHRIOVSW,OHRIOVSW,OLD HICKORY BLVD PAST RIO VISTA WB,,36.262388,-86.680929,,,,,,
BAPHAYN,BAPHAYN,BAPTIST WORLD CENTER DR. & HAYNES MEADE CIR NB,,36.202481,-86.788702,,,,,,
NEEHOWEN,NEEHOWEN,NEELYS BEND RD & HOWSE AVE EB,,36.253312,-86.698326,,,,,,0
NEENEEEF,NEENEEEF,NEELYS BEND RD & NEELYS CHASE DR EB,,36.254815,-86.702031,,,,,,0
NEEJAPEF,NEEJAPEF,NEELYS BEND RD & JASPERSON DR EB,,36.247943,-86.682633,,,,,,0
CHECHENN,CHECHENN,CHEYENNE BLVD & CANTON PASS NB,,36.249422,-86.669994,0,,,,,
CHEMANNN,CHEMANNN,CHEYENNE BLVD & HIDDEN ACRES APTS NB,,36.256277,-86.674733,,,,,,
SANLONNN,SANLONNN,SANDHURST DR & LONDON BRIDGE RD NB,,36.261064,-86.678101,,,,,,
OLDFARWN,OLDFARWN,OLD HICKORY BLVD & FARRIS AVE WB,,36.262974,-86.687982,,,,,,
OLDMYAWN,OLDMYAWN,E OLD HICKORY BLVD & MYATT DR WB,61 MYATT DR & RANDY RD,36.263139,-86.690288,0,,,,,0
OLD3AVWM,OLD3AVWM,OLD HICKORY & 3RD AVE,215 OLD HICKORY BLVD E,36.262587,-86.708398,,,,,,0
MYADUPNN,MYADUPNN,MYATT DR & N DUPONT AVE NB,,36.266404,-86.689977,,,,,,
ARCANDNN,ARCANDNN,ARCHWOOD DR & ANDERSON LN NB,,36.271947,-86.687387,,,,,,
DUPSEAWN,DUPSEAWN,N DUPONT AVE & SEALEY DR WB,,36.267823,-86.701859,,,,,,
DELSTRSN,DELSTRSN,DELAWARE AVE & SR 45 SB,,36.26412,-86.704469,,,,,,
GALMAPSN,GALMAPSN,GALLATIN PIKE S & MAPLE ST SB,,36.261326,-86.712671,,,,,,1
DUPARCEN,DUPARCEN,N DUPONT AVE & ARCHWOOD DR EB,,36.266161,-86.686945,,,,,,
ARCROONN,ARCROONN,ARCHWOOD DR & ROOSEVELT AVE NB,,36.268035,-86.685999,,,,,,
CXINGULC,CXINGULC,11TH AVE / N GULCH STATION INBOUND,1079 CHARLOTTE AVE,36.162295,-86.789985,,,,,,1
OLD3AVEN,OLD3AVEN,OLD HICKORY BLVD & 3RD AVE EB,235 OLD HICKORY BLVD E & 3RD AVE,36.262534,-86.707648,,,,,,0
ANDMCAWN,ANDMCAWN,ANDERSON LN & MCARTHUR DR WB,,36.272253,-86.690438,,,0,,,0
OLD4AVWF,OLD4AVWF,OLD HICKORYBLVD  & 4TH AVE EB,,36.26279,-86.705695,,,,,,0
MURKNIWF,MURKNIWF,MURFREESBORO PIKE & KNIGHT VALLEY DR WB,1442 MURFREESBORO PIKE & MCGAVOCK PIKE,36.112996,-86.688761,0,,,,,0
SPFD1PNR,SPFD1PNR,SPRINGFIELD DOWNTOWN PARK AND RIDE,,36.507216,-86.886086,0,,,,,
SPFD2PNR,SPFD2PNR,SPRINGFIELD WALMART PARK AND RIDE,,36.483692,-86.887631,0,,,,,
JOELPNR,JOELPNR,JOELTON PLAZA PARK AND RIDE,,36.321196,-86.867084,0,,,,,
WED16ASN,WED16ASN,WEDGEWOOD AVE & 16TH AVE WB,,36.136319,-86.794443,,,,,,0
3ACOFSF,3ACOFSF,3RD AVE N & COFFEE ST SB,3RD AV N,36.186974,-86.793597,0,,,,,
EDG12AEN,EDG12AEN,EDGEHILL AVE & 12TH AVE S EB,,36.14271,-86.787292,,,,,,
31AWESSF,31AWESSF,31ST AVE & WEST END AVE SB,,36.141776,-86.815005,,,,,,0
WED21AEF,WED21AEF,WEDGEWOOD AVE & 21ST AVE EB,,36.13746,-86.800216,,,,,,0
DWMRT,DWMRT,DICKERSON RD WAL MART,,36.244207,-86.760509,,,,,,1
BRO10AEN,BRO10AEN,BROADWAY & 10TH AVE EB,937 ,36.157678,-86.78468,0,,0,,,0
NOLWELSF,NOLWELSF,WALMART STATION OUTBOUND,4046 NOLENSVILLE PIKE & WELSHWOOD DR,36.082341,-86.727342,0,,,,,0
HERLINSN,HERLINSN,HERMITAGE AVE & LINDSLEY AVE SB,,36.154948,-86.76389,,,,,,
ACOMASNF,ACOMASNF,ACORN DR & MASSMAN DR NB,,36.154034,-86.701612,,,,,,
ELMACOEN,ELMACOEN,ELM HILL PIKE & ACORN DR EB,,36.150256,-86.70008,,,,,,
31AWELEN,31AWELEN,31ST AVE & WELLINGTON AVE EB,,36.139709,-86.813339,,,,,,
31AWELWF,31AWELWF,31ST AVE & WELLINGTON AVE WB,,36.139736,-86.813305,,,,,,
31ANATEN,31ANATEN,31ST AVE & NATCHEZ TRC EB,,36.138647,-86.810871,,,,,,0
BLA25AEN,BLA25AEN,BLAKEMORE AVE & 25TH AVE S EB,,36.138211,-86.807159,,,,,,
BLA24AEN,BLA24AEN,BLAKEMORE AVE & 24TH AVE S EB,,36.137997,-86.805062,,,,,,
BLA23AEN,BLA23AEN,BLAKEMORE AVE & 23RD AVE S EB,,36.137809,-86.803167,,,,,,
WED18AWN,WED18AWN,WEDGEWOOD AVE & 18TH AVE S WB,,36.137212,-86.796865,,,,,,
WED21AWN,WED21AWN,WEDGEWOOD AVE & 21ST AVE S WB,,36.137605,-86.800191,,,,,,0
BLA23AWN,BLA23AWN,BLAKEMORE AVE & 23RD AVE S WB,,36.137872,-86.803089,,,,,,0
BLA25AWN,BLA25AWN,BLAKEMORE AVE & 25TH AVE S WB,,36.138273,-86.807058,,,,,,
BLANATWN,BLANATWN,BLAKEMORE AVE & NATCHEZ TRC WB,,36.138701,-86.810781,,,,,,
31AVANWF,31AVANWF,31ST AVE & VANDERBILT PL WB,,36.141531,-86.814575,,,,,,0
BLA24AWF,BLA24AWF,BLAKEMORE AVE & 24TH AVE S WB,,36.138104,-86.805545,,,,,,
SPRHLPNR,SPRHLPNR,SPRING HILL KROGER PARK AND RIDE,,35.7416,-86.892874,0,,,,,0
21ABROSF,21ABROSF,21ST AVE & BROADWAY AVE SB,21ST AVE S & BROADWAY,36.147948,-86.799364,,,,,,
EDGMAGEN,EDGMAGEN,EDGEHILL AVE & MAGNOLIA CIR,,36.143989,-86.799031,,,,,,
WED17AWN,WED17AWN,WEDGEWOOD AVE & 17TH AVE WB,WEDGEWOOD AVE & MAGNOLIA BLVD,36.136825,-86.795508,,,,,,
DOVDICWF,DOVDICWF,DOVERSIDE DR & DICKERSON PIKE WB,,36.24406,-86.757403,,,,,,0
DICDOVSN,DICDOVSN,DICKERSON PIKE & DOVERSIDE DR SB,,36.244199,-86.756731,,,,,,
OLDCE_SN,OLDCE_SN,OLD HICKORY BLVD & CENTRAL PIKE  SB,,36.173863,-86.602327,,,,,,
OLDCENNF,OLDCENNF,OLD HICKORY BLVD & CENTRAL PIKE NB,5680 OLD HICKORY BLVD & CENTRAL PIKE,36.174008,-86.602076,0,,,,,0
NOLWELNN,NOLWELNN,WALMART STATION INBOUND,,36.082032,-86.726914,,,,,,1
HER16AWN,HER16AWN,HERMAN ST & 16TH AVE N WB,,36.165526,-86.800157,,,,,,
GARDELNN,GARDELNN,GARFIELD ST & DELTA AVE  NB,9TH AVE & DELTA AVE,36.179792,-86.798754,0,,,,,0
TEN50AWN,TEN50AWN,TENNESSEE AVE & 50TH AVE WB,,36.161028,-86.847693,,,,,,
UNI2AEF,UNI2AEF,UNION ST & 2ND AVE EB,,36.166036,-86.777419,,,,,,0
BRIWORNF,BRIWORNF,BRIARVILLE RD & WORTH ST NB,,36.243538,-86.736359,,,,,,0
28ACHASF,28ACHASF,28TH AVE & CHARLOTTE AVE SB,,36.153539,-86.818245,,,,,,0
28ACHANF,28ACHANF,28TH AVE & CHARLOTTE AVE NB,,36.154331,-86.818228,,,,,,0
POWBRASF,POWBRASF,POWELL AVE & BRANSFORD AVE SB,,36.109932,-86.766778,,,,,,0
BURWALEF,BURWALEF,BURTON ST & WALNUT ST EB,,35.849241,-86.393012,,,,,,
MORBRISN,MORBRISN,MOOREWOOD DR & BRICKMONT CT SB,,36.246686,-86.773049,,,,,,
DBTWHESN,DBTWHESN,DR DB TODD BLVD & WHELESS ST SB,,36.176207,-86.809511,,,,,,
DBTUNDSN,DBTUNDSN,DR DB TODD BLVD & UNDERWOOD ST SB,,36.173382,-86.808281,,,,,,
DBTJEFSN,DBTJEFSN,DR DB TODD BLVD & JEFFERSON ST SB,,36.169563,-86.806748,,,,,,0
33AALBSN,33AALBSN,33 RD AVE N & ALBION ST SB,,36.163356,-86.826119,,,,,,
ALB30AEF,ALB30AEF,ALBION ST & 30TH AVE N EB,2976 ALBION ST & 30TH AVE,36.163872,-86.822059,,,,,,0
28AHERSF,28AHERSF,28TH AVE N & HERMAN ST SB,903 28TH AVE & BATAVIA ST,36.161347,-86.819241,,,,,,0
28ACLISN,28ACLISN,28TH AVE N & CLIFTON AVE SB,,36.158825,-86.818629,,,,,,
31ALONSN,31ALONSN,31ST AVE N & LONG BLVD SB,,36.146548,-86.816414,,,,,,
31ABURNN,31ABURNN,31ST AVE N & BURCH AVE NB,,36.146209,-86.816324,,,,,,
28ATORNF,28ATORNF,28TH AVE N & TORBETT ST NB,671 28TH AVE & TORBETT ST,36.158245,-86.818531,,,,,,0
28AHERNN,28AHERNN,28TH AVE N & HERMAN ST NB,,36.161575,-86.819214,,,,,,
ALB30AWN,ALB30AWN,ALBION ST & 30ST AVE N WB,2988 ALBION ST & 30TH AVE,36.16394,-86.822222,0,,,,,0
ALB33AWN,ALB33AWN,ALBION ST & 33RD AVE N WB,,36.163323,-86.825945,,,,,,
DBTUNDNN,DBTUNDNN,DR DB TODD BLVD & UNDERWOOD ST NB,,36.173302,-86.808157,,,,,,
DBTWHENN,DBTWHENN,DR DB TODD BLVD & WHELESS ST NB,,36.175891,-86.809247,,,,,,
DICMULNN,DICMULNN,DICKERSON PIKE & MULBERRY DOWNS CIR,,36.251065,-86.757218,,,,,,
HUNYOEWN,HUNYOEWN,HUNTERS LN & YOEST DR WB,,36.27798,-86.753355,0,,,,,0
MURSTOEN,MURSTOEN,MURFREESBORO PIKE & STONES RIVER RD,,36.01921,-86.573521,,,,,,
MURVETEF,MURVETEF,MURFREESBORO PIKE & VETERANS MEMORIAL EB,,36.016241,-86.561595,0,,,,,
NHIEBUNF,NHIEBUNF,N HIGHLAND AVE & E BURTON ST NB,,35.84836,-86.383141,,,,,,
NHIEBUSN,NHIEBUSN,N HIGHLAND AVE & E BURTON ST SB,,35.848414,-86.383297,,,,,,
MURVETWN,MURVETWN,MURFREESBORO PIKE & VETERANS MEMORIAL WB,,36.016652,-86.561482,0,,,,,
28APARNN,28APARNN,28TH AVE & PARK PLZ NB,,36.149914,-86.817829,,,,,,0
28APARSF,28APARSF,28TH AVE & PARK PLZ SB,,36.149861,-86.817851,,,,,,
26ADOWNN,26ADOWNN,26TH AVE & DOWLAN ST NB,,36.188345,-86.818317,,,,,,
DOW25AEN,DOW25AEN,DOWLAN ST & 25TH AVE EB,,36.188321,-86.816946,,,,,,
MXOMCCTR,MXOMCCTR,CONVENTION CENTER STATION OUTBOUND,,36.159257,-86.776124,,,,,,1
MXOWHARF,MXOWHARF,WHARF STATION OUTBOUND,,36.148839,-86.76271,,,,,,1
MXOELMHI,MXOELMHI,ELM HILL STATION OUTBOUND,,36.144475,-86.749604,,,,,,1
MXOFOSTE,MXOFOSTE,FOSTER STATION OUTBOUND,,36.140994,-86.739126,,,,,,1
MXOTHOMP,MXOTHOMP,THOMPSON STATION OUTBOUND,,36.128164,-86.713199,,,,,,1
MXOGLENG,MXOGLENG,GLENGARRY STATION OUTBOUND,,36.121149,-86.704215,,,,,,1
MXODONEL,MXODONEL,DONELSON/DELL STATION OUTBOUND,,36.105615,-86.672004,,,,,,1
MXONASHB,MXONASHB,NASHBORO STATION OUTBOUND,,36.088579,-86.649765,,,,,,1
MXOBELL,MXOBELL,BELL STATION OUTBOUND,,36.07199,-86.636496,0,,,,,1
MXOZELID,MXOZELID,ZELIDA STATION OUTBOUND,,36.055201,-86.642465,,,,,,1
MXOMTVIE,MXOMTVIE,MOUNT VIEW STATION OUTBOUND,BELL RD & RAMP,36.050724,-86.647404,0,,,,,1
MXIMTVIE,MXIMTVIE,MOUNT VIEW STATION INBOUND,,36.050198,-86.648198,,,,,,1
MXIZELID,MXIZELID,ZELIDA STATION INBOUND,,36.055495,-86.642172,,,,,,1
MXIBELL,MXIBELL,BELL STATION INBOUND,2636 MURFREESBORO PIKE,36.072852,-86.636862,,,,,,1
MXINASHB,MXINASHB,NASHBORO STATION INBOUND,2262 MURFREESBORO PIKE,36.088298,-86.64938,,,,,,1
MXIDONEL,MXIDONEL,DONELSON/DELL STATION INBOUND,,36.106276,-86.672801,,,,,,1
MXIGLENG,MXIGLENG,GLENGARRY STATION INBOUND,,36.121215,-86.703814,,,,,,1
MXITHOMP,MXITHOMP,THOMPSON STATION INBOUND,,36.127172,-86.711441,,,,,,1
MXIFOSTE,MXIFOSTE,FOSTER STATION INBOUND,,36.141554,-86.740261,,,,,,1
MXIELMHI,MXIELMHI,ELM HILL STATION INBOUND,,36.144938,-86.750456,,,,,,1
MXIWHARF,MXIWHARF,WHARF STATION INBOUND,,36.14886,-86.762226,,,,,,1
MXOFULTN,MXOFULTN,FULTON STATION OUTBOUND,,36.153405,-86.772328,,,,,,1
PORGRESF,PORGRESF,PORTER RD & GREENWOOD AVE SB,,36.188328,-86.729427,0,,,,,0
MXOPLUSP,MXOPLUSP,PLUS PARK STATION OUTBOUND,,36.13434,-86.723268,,,,,,1
MXIPLUSP,MXIPLUSP,PLUS PARK STATION INBOUND,,36.134477,-86.722961,,,,,,1
LEBEASWN,LEBEASWN,LEBANON PIKE & EASTHAVEN TOWNHOMES SB,,36.163373,-86.699707,0,,,,,0
LEBOMOWF,LEBOMOWF,LEBANON PIKE & OMOHUNDRO DR WB,1884 LEBANON PIKE,36.15688,-86.709648,,,,,,0
HERDECEN,HERDECEN,HERMITAGE AVE & DECATUR ST EB,,36.153558,-86.753688,,,,,,
HERMIDWF,HERMIDWF,HERMITAGE AVE & MIDDLETON ST WB,,36.156129,-86.767343,,,,,,
LEBOMHWN,LEBOMHWN,LEBANON PIKE & OMOHUNDRO PL WB,,36.154492,-86.739533,,,,,,
H70MONEF,H70MONEF,HWY 70 & MONTVIEW CONDOS EB,,36.079799,-86.903128,,,,,,0
H70FORWN,H70FORWN,HWY 70 & FOREST PARK APARTMENTS WB,6955 USHY 70S,36.077563,-86.91219,,,,,,0
H70FOREM,H70FOREM,HWY 70 & FOREST PARK APARTMENTS EB,,36.077373,-86.912033,,,,,,1
H70OLDWN,H70OLDWN,HWY 70 & OLD HICKORY BLVD WB,,36.074995,-86.919547,,,,,,1
SAWPLASM,SAWPLASM,SAWYER BROWN RD & PLANTATION CT SB,,36.07497,-86.946076,,,,,,
TODSAWEF,TODSAWEF,TODD PREIS DR & SAWYER BROWN RD EB,,36.07089,-86.946694,,,,,,
H70HILWN,H70HILWN,HWY 70 & HILLMEAD APTS WB,6805 USHY 70S,36.080416,-86.901647,,,,,,0
MCGGALWN,MCGGALWN,MCGAVOCK PIKE & GALLATIN PIKE WB,1109 MCGAVOCK PIKE & THOMAS AVE,36.20502,-86.737148,0,,,,,0
KOR4AVWN,KOR4AVWN,KOREAN VETS BLVD & 4TH AVE WB,,36.157299,-86.774558,,,,,,0
KOR6AVWN,KOR6AVWN,KOREAN VETS BLVD & 6TH AVE WB,,36.156039,-86.77717,,,,,,0
RIVHANSF,RIVHANSF,RIVERSIDE DR & HANOVER RD SB,,36.20271,-86.722726,,,,,,0
RIVDORSN,RIVDORSN,RIVERSIDE DR & DORCHESTER AVE SB,,36.198326,-86.723246,,,,,,0
PORMCKSF,PORMCKSF,PORTER RD & MCKENNELL DR SB,1491 PORTER RD & MCKENNELL DR,36.193057,-86.72665,,,,,,0
PORTILNF,PORTILNF,PORTER RD & TILLMAN LN NB,823 PORTER RD & TILLMAN LN,36.18522,-86.731145,0,,,,,0
PLSTVWPR,PLSTVWPR,PLEASANT VIEW PARK AND RIDE,,36.390575,-87.020703,0,,,,,
VAIBRIEF,VAIBRIEF,VAILVIEW DR & BRICKDALE LN EB,,36.235422,-86.772989,,,,,,0
DICALHNN,DICALHNN,DICKERSON PIKE & ALHAMBRA CIR NB,,36.219661,-86.762272,,,,,,
COUHOSWN,COUHOSWN,COUNTY HOSPITAL RD & HOSPITAL LN WB,3303 HOSPITAL LN & COUNTY HOSPITAL RD,36.1827,-86.845591,,,,,,0
HAMRIVNM,HAMRIVNM,HAMILTON RD S & RIVER DR NB,,36.192671,-86.831987,,,,,,
HER12AEN,HER12AEN,HERMAN ST & 12TH AVE N EB,,36.167152,-86.796343,,,,,,
CAMCOUSF,CAMCOUSF,CAMILLA CALDWELL LN & COUNTY HOSPITAL RD SB,,36.182449,-86.847812,,,,,,
21AHERSN,21AHERSN,21ST AVE & HERMOSA ST SB,,36.163744,-86.808549,,,,,,
40APRENN,40APRENN,40TH AVE & PRESTON TAYLOR PL NB,,36.160248,-86.835421,,,,,,
44AWALSM,44AWALSM,44TH AVE & WALTER S DAVIS BLVD SB,,36.162389,-86.840223,,,,,,
JON29AWF,JON29AWF,JOHN A MERRITT BLVD & 29TH AVE WB,,36.167968,-86.821943,,,,,,
CLAFAISF,CLAFAISF,CLARKSVILLE PIKE & FAIRVIEW DR SB,,36.210576,-86.839218,0,,0,,,0
23RBUCSN,23RBUCSN,23RD AVE & BUCHANAN ST SB,,36.180613,-86.814645,,,,,,
ELMFESEN,ELMFESEN,ELM HILL PIKE & FESSLERS LN EB,,36.144609,-86.744305,,,,,,0
ELMTWIEM,ELMTWIEM,ELM HILL PIKE & TWIN ELMS CT EB,,36.14382,-86.735244,,,,,,0
ELMMASEM,ELMMASEM,ELM HILL PIKE & MASSMAN DR EB,,36.144372,-86.714676,,,,,,0
MASAPPEN,MASAPPEN,MASSMAN DR & APPLETON DR EB,,36.151868,-86.706572,,,,,,
MASAPPWM,MASAPPWM,MASSMAN DR & APPLETON DR WB,,36.152786,-86.704462,,,,,,
MASMAPWF,MASMAPWF,MASSMAN DR & MAPLELEAF DR WB,,36.150717,-86.709254,,,,,,
ELMELMEF,ELMELMEF,ELM HILL PIKE & ELM TREE DR EB,,36.145528,-86.706175,,,,,,0
ELMAIREN,ELMAIREN,ELM HILL PIKE & AIR LANE DR EB,,36.150263,-86.698039,,,,,,0
DONSHANM,DONSHANM,DONELSON PIKE & SHACLETT DR NB,,36.144049,-86.66659,,,,,,0
ELMWANWM,ELMWANWM,ELM HILL PIKE & WANDA DR WB,2142 ELM HILL PIKE & SANBORN DR,36.150845,-86.69316,,,,,,0
ELMAPPSF,ELMAPPSF,ELM HILL PIKE & APPLETON DR SB,,36.148937,-86.703446,,,,,,0
ELMAIRWF,ELMAIRWF,ELM HILL PIKE & AIR LANE DR WB,,36.145617,-86.706264,,,,,,
ELMMASW_,ELMMASW_,ELM HILL PIKE & MASSMAN DR WB,,36.144995,-86.710874,0,,,,,2
ELMTWIWF,ELMTWIWF,ELM HILL PIKE & TWIN ELMS CT WB,976 ELM HILL PIKE & TWIN ELMS CT,36.144206,-86.738218,,,,,,0
ELMFESWF,ELMFESWF,ELM HILL PIKE & FESSLERS LN WB,,36.144832,-86.745056,,,,,,
12ACARSF,12ACARSF,12TH AVE & CARUTHERS AVE SB,,36.125596,-86.789441,,,,,,
GRAKIRNN,GRAKIRNN,GRANNY WHITE PIKE & KIRKWOOD AVE NB,,36.120711,-86.790472,,,,,,
REVROWWN,REVROWWN,REVELS DR & ROWAN DR WB,,36.222813,-86.809262,,,,,,0
ROWBONWN,ROWBONWN,ROWAN DR & BONTEMPS DR WB,,36.219615,-86.815155,,,,,,
ROWBONEF,ROWBONEF,ROWAN DR & BONTEMPS DR EB,,36.219552,-86.815121,,,,,,
LYTBOYNN,LYTBOYNN,LYTLE DR & BOYD DR NB,,36.222513,-86.827134,,,,,,
WHILUZSN,WHILUZSN,WHITES CREEK PIKE & LUZON ST SB,,36.210386,-86.796541,,,,,,0
BATMEASN,BATMEASN,BAPTIST WORLD CENTER DR & MEADE DR SB,1816 BAPTIST WORLD CENTER DR & MEADE AVE,36.203289,-86.789279,,,,,,0
FREVANSM,FREVANSM,FRENCH LANDING DR & VANTAGE WAY SB,180 FRENCH LANDING DR,36.190425,-86.797514,,,,,,0
MCGGLEWN,MCGGLEWN,MCGAVOCK PIKE & GLENMEADE DR WB,1263 MCGAVOCK PIKE & GLENMEADE DR,36.204035,-86.726778,,,,,,0
31AHEDSN,31AHEDSN,31ST AVE N AND HEDRICK ST SB,,36.143655,-86.816301,,,,,,
31AHEDNF,31AHEDNF,31ST AVE N & HEDRICK ST NB,,36.144012,-86.816447,,,,,,
EDG15AWN,EDG15AWN,EDGEHILL AVE & 15TH AVE S WB,,36.14316,-86.790598,,,,,,
EDG10AEN,EDG10AEN,EDGEHILL AVE & 10TH AVE S EB,,36.141838,-86.78351,,,,,,
WED19AWN,WED19AWN,WEDGEWOOD AVE & 19TH AVE WB,,36.137391,-86.798009,,,,,,
GREFAIN,GREFAIN,GREEN ST & FAIRFIELD AVE NB,,36.152666,-86.75629,0,,,,,
LEBRIVEF,LEBRIVEF,LEBANON PIKE & RIVERSTONE BLVD EB,LEBANON PK & RIVERSTONE BLVD,36.170385,-86.653513,,,,,,
LEBRIVWN,LEBRIVWN,LEBANON PIKE & RIVERSTONE BLVD SB,LEBANON PK & RIVERSTONE BLVD,36.170671,-86.653457,,,,,,
DKWMPNR,DKWMPNR,DICKSON WALMART PARK AND RIDE,399 RUGER DR,36.059972,-87.379122,0,,,,,
CXI17AVE,CXI17AVE,17TH AVE STATION INBOUND,1701 CHARLOTTE AVE & 17TH AVE,36.158718,-86.79822,,,,,,1
11ACHASF,11ACHASF,11TH AVE & CHARLOTTE AVE SB,361 11TH AVE,36.161582,-86.790293,,,,,,0
11ACHUSF,11ACHUSF,11TH AVE & CHURCH ST SB,321 11TH AVE & CHURCH ST,36.159402,-86.788385,,,,,,0
11APORSF,11APORSF,11TH AVE & PORTER ST SB,303 11TH AVE & PORTER ST,36.157903,-86.786781,,,,,,
11ADEMSF,11ADEMSF,11TH AVE & DEMONBREUN SB,4 11TH AVE & MCGAVOCK ST,36.155013,-86.785074,,,,,,
11ALAUSF,11ALAUSF,11TH AVE & LAUREL ST SB,279 11TH AVE & LAUREL ST,36.153661,-86.784135,,,,,,0
11ALAUNN,11ALAUNN,11TH AVE & LAUREL ST NB,303 11TH AVE & LAUREL ST,36.154035,-86.784289,0,,,,,0
11ADEMNF,11ADEMNF,11TH AVE & DEMONBREUN NB,20 11TH AVE & MCGAVOCK ST,36.155189,-86.785031,,,,,,
11APORNN,11APORNN,11TH AVE & PORTER ST NB,302 11TH AVE & PORTER ST,36.157887,-86.786591,,,,,,
11ACHUNF,11ACHUNF,11TH AVE & CHURCH ST NB,325 11TH AVE & CHURCH ST,36.159745,-86.788521,,,,,,0
DRDJOJSN,DRDJOJSN,DR DB TODD JR BLVD & JO JOHNSTON AV,555 DR DB TODD JR BLVD & JO JOHNSTON AVE,36.160663,-86.802047,,,,,,
MURFEREF,MURFEREF,MURFREESBORO PK & FERGUS RD,5544 USHY 41 & FERGUS RD,36.010319,-86.543967,,,,,,
MURFERWF,MURFERWF,MURFREESBORO PIKE & FERGUS RD WB,,36.011107,-86.54452,,,,,,
MURSTOWF,MURSTOWF,MURFREESBORO PIKE & STONES RIVER RD,,36.019614,-86.573641,,,,,,
MURJACWF,MURJACWF,MURFREESBORO PIKE & JACKSON SQ BLVD,,36.020262,-86.576425,,,,,,
MURCITWN,MURCITWN,MURFREESBORO PIKE & CITY HALL WB,,36.021807,-86.581929,,,,,,
MURCITEN,MURCITEN,MURFREESBORO PIKE & CITY HALL EB,,36.021879,-86.582799,,,,,,
MURJACEN,MURJACEN,MURFREESBORO PIKE & JACKSON SQ BLVD,,36.020026,-86.576793,,,,,,
GALPNR,GALPNR,GALLATIN PARK AND RIDE,,36.366956,-86.502848,0,,,,,0
OLDFRTPR,OLDFRTPR,OLD FORT PARK AND RIDE,,35.847442,-86.410231,0,,,,,
OLDH70NF,OLDH70NF,OLD HICKORY BLVD & HWY 70S NB,,36.075779,-86.920781,,,,,,2
RECHAREN,RECHAREN,RECOVERY RD & HARDING PL EB,,36.080245,-86.717891,,,,,,
HARTAMEN,HARTAMEN,HARDING PL & TAMPA DR EB,,36.082531,-86.710672,,,,,,
HAREZEEN,HAREZEEN,HARDING PL & EZELL PK EB,,36.08944,-86.688593,,,,,,
WALWILWF,WALWILWF,WALLACE RD & WILLARD DR WB,,36.079863,-86.703793,,,,,,
WALTURWN,WALTURWN,WALLACE RD & TURLEY DR WB,,36.079101,-86.708119,,,,,,
EZECONWN,EZECONWN,EZELL PIKE CONVENIENCE CTR WB,3240 EZELL PIKE,36.086817,-86.686874,,,,,,
NOLTAYSN,NOLTAYSN,NOLENSVILLE PK & TAYLOR RD SB,,36.069885,-86.721628,,,,,,
GREKNIEN,GREKNIEN,GREEN LN & KNIGHT DR EB,,36.236671,-86.803279,,,,,,
PORPREWF,PORPREWF,PORTER RD & PRESTON DR WB,1981 PORTER RD & PRESTON DR,36.19602,-86.717558,,,,,,
RURCORNN,RURCORNN,RURAL AVE AND CORBETT LN (BIG PICTURE H.S.),,36.142901,-86.856027,,,,,,
CLKE11PR,CLKE11PR,CLARKSVILLE EXIT 11 PARK AND RIDE,,36.525005,-87.217205,0,,,,,
THKG,THKG,THOMPSON LN KROGER,,36.110432,-86.724234,,,,,,0
BILTAPTS,BILTAPTS,BILTMORE APARTMENTS AT GLASTONBURY & MASSMAN,510 GLASTONBURY RD & BRILEY PKWY,36.133289,-86.701186,,,,,,
THOMUREN,THOMUREN,E THOMPSON & MURFREESBORO EB,,36.126231,-86.711711,,,,,,
THOMURWF,THOMURWF,E THOMPSON & MURFREESBORO WB,207 THOMPSON LN E & RAMP,36.126515,-86.711739,,,,,,2
COLEMAN,COLEMAN,COLEMAN RECREATION CENTER,,36.11191,-86.743385,,,,,,
THOSEAEF,THOSEAEF,THOMPSON LN & SEABOARD DR EB,,36.111093,-86.74961,,,,,,
THOGRAEF,THOGRAEF,THOMPSON LN & GRANDVIEW EB,,36.110896,-86.746532,,,,,,
THOSIMEF,THOSIMEF,THOMPSON LN & SIMMONS EB,,36.110422,-86.740431,,,,,,
THOSTEEF,THOSTEEF,THOMPSON LN & ST EDWARDS DR EB,,36.110185,-86.738175,,,,,,
THOWINEN,THOWINEN,THOMPSON LN & WINGATE AVE EB,,36.10985,-86.734791,,,,,,
THOSELEN,THOSELEN,THOMPSON LN & SELENA DR EB,,36.109606,-86.732269,,,,,,
ETHGLENF,ETHGLENF,E THOMPSON LN & GLENROSE NB,,36.115479,-86.719325,,,,,,0
ETHOLDNN,ETHOLDNN,E THOMPSON LN & OLD GLENROSE NB,,36.117135,-86.719031,,,,,,
ETHCURNF,ETHCURNF,E THOMPSON LN & CURREY RD NB,,36.119019,-86.718415,,,,,,
ETHLAWNF,ETHLAWNF,E THOMPSON LN & LAWNDALE NB,,36.122521,-86.71746,,,,,,
ETHBRONN,ETHBRONN,E THOMPSON LN & BROWNING RD NB,,36.120544,-86.717951,,,,,,0
ETHWIMEN,ETHWIMEN,E THOMPSON LN & WIMPOLE EB,,36.124468,-86.715127,,,,,,0
MASKIPNF,MASKIPNF,MASSMAN DR & KIPLING DR NB,,36.130649,-86.700083,,,,,,
MASKIPNM,MASKIPNM,MASSMAN DR & KIPLING DR NB,,36.13214,-86.700675,0,,,,,0
MASGLANF,MASGLANF,MASSMAN DR & GLASTONBURY DR NB,,36.133947,-86.702625,,,,,,
MASPATNN,MASPATNN,MASSMAN DR & PATRICIA DR NB,,36.134916,-86.704613,0,,,,,
PATKARNN,PATKARNN,PATRICIA DR & KAREN DR NB,,36.138973,-86.70577,,,,,,
KARBRIEN,KARBRIEN,KAREN DR & BRILEY PKWY EB,,36.139535,-86.700785,,,,,,
GLABRIWF,GLABRIWF,GLASTONBURY RD & BRILEY PKWY WB,,36.136966,-86.700464,,,,,,
GLABRIWM,GLABRIWM,GLASTONBURY RD & BRILEY PKWY WB,,36.135986,-86.7016,,,,,,
POWTHONN,POWTHONN,POWELL AVE & THOMPSON LN NB,,36.110613,-86.766894,,,,,,
GLAMASSN,GLAMASSN,GLASTONBURY RD & MASSMAN DR SB,,36.133808,-86.702296,,,,,,
MASGLASM,MASGLASM,MASSMAN DR & GLASTONBURY RD SB,,36.131742,-86.700506,,,,,,0
GOOKIPSF,GOOKIPSF,GOODBAR DR & KIPLING DR SB,,36.130048,-86.700261,,,,,,
GOOTHOSN,GOOTHOSN,GOODBAR DR & THOMPSON PL SB,,36.12736,-86.700639,,,,,,0
THOCATWN,THOCATWN,THOMPSON PL & CATINA DR WB,,36.127309,-86.703813,,,,,,0
THOPATWN,THOPATWN,THOMPSON PL & PATRICIA DR WB,,36.127233,-86.70706,,,,,,
THOMURWN,THOMURWN,THOMPSON PL & MURFREESBORO PK WB,,36.12692,-86.710293,,,,,,0
ETHWIMWN,ETHWIMWN,E THOMPSON LN & WIMPOLE WB,,36.124904,-86.71473,,,,,,0
ETHLAWSF,ETHLAWSF,E THOMPSON LN & LAWNDALE DR SB,,36.121929,-86.717859,,,,,,
ETHBROSF,ETHBROSF,E THOMPSON LN & BROWNING RD SB,,36.120599,-86.718195,,,,,,
ETHWIMSF,ETHWIMSF,E THOMPSON LN & WIMPOLE DR SB,,36.118399,-86.718843,,,,,,
ETHOLDSF,ETHOLDSF,E THOMPSON LN & OLD GLENROSE SB,,36.117036,-86.719289,,,,,,
ETHGLESF,ETHGLESF,E THOMPSON LN & GLENROSE SB,,36.114457,-86.719833,,,,,,
THOSELWN,THOSELWN,THOMPSON LN & SELENA DR WB,,36.109838,-86.731716,,,,,,
THOWINWF,THOWINWF,THOMPSON LN & WINGATE AVE WB,,36.110077,-86.73481,,,,,,
THOSTEWN,THOSTEWN,THOMPSON LN & ST EDWARDS WB,,36.110359,-86.73749,,,,,,
THOSIMWN,THOSIMWN,THOMPSON LN & SIMMONS AVE WB,,36.110649,-86.740541,,,,,,
THOGRAWN,THOGRAWN,THOMPSON LN & GRANDVIEW WB,,36.111126,-86.746656,,,,,,
THOLANWF,THOLANWF,THOMPSON LN & LANDERS AVE WB,,36.111313,-86.749256,,,,,,
THOEUGWN,THOEUGWN,THOMPSON LN & EUGENIA AVE WB,,36.111186,-86.754258,,,,,,
THOKRAWN,THOKRAWN,THOMPSON LN & KRAFT DR WB,,36.111538,-86.757605,,,,,,
THOEIRWN,THOEIRWN,THOMPSON LN & E IRIS DR WB,,36.11203,-86.762728,,,,,,
THOBRAWM,THOBRAWM,THOMPSON LN & BRANSFORD DR WB,,36.112227,-86.764816,,,,,,0
GLASOUWN,GLASOUWN,GLASTONBURY AND SOUTHWOOD WB,,36.135296,-86.701995,,,,,,
MOR57ASN,MOR57ASN,MORROW RD & 57TH AVE N SB,5707 MORROW RD & 57TH AVE,36.160003,-86.857182,,,,,,
MORALASM,MORALASM,MORROW RD & ALABAMA AVE SB,,36.152446,-86.852286,,,,,,
51AGEONF,51AGEONF,51ST AVE N & GEORGIA AVE NB,,36.155586,-86.848664,,,,,,
AGEXPOPR,AGEXPOPR,WILLIAMSON CO AG EXPO PARK AND RIDE,4205 LONG LN,35.861601,-86.826882,0,,,,,
28ACITNN,28ACITNN,28TH AVE N & CITY BLVD NB,,36.152325,-86.818473,,,,,,
DELCUMSN,DELCUMSN,DELAWARE AVE & CUMBERLAND AVE SB,,36.267283,-86.703557,,,,,,
MCSHAM,MCSHAM,HAMILTON SPRINGS STATION,,36.234559,-86.367777,0,,,,,0
FRAKIRNN,FRAKIRNN,FRANKLIN PIKE & KIRKWOOD AVE NB,,36.12109,-86.77526,,,0,,,1
FRABERSN,FRABERSN,FRANKLIN PK & BERRY RD SB,,36.119076,-86.774785,,,,,,
FRABERNF,FRABERNF,FRANKLIN PK & BERRY RD NB,,36.119425,-86.774642,,,,,,
FRATHOSN,FRATHOSN,FRANKLIN PK & THOMPSON LN SB,,36.111314,-86.773528,,,,,,
OLDWOOSF,OLDWOOSF,OLD HICKORY BLVD & WOODBURY FALLS D,367 OLD HICKORY BLVD & WOODBURY FALLS DR,36.087678,-86.920852,,,,,,0
LISEDWSN,LISEDWSN,LISCHEY AVE & EDWIN ST SB,,36.204415,-86.761388,0,,,,,
LISEDISN,LISEDISN,LISCHEY AVE & EDITH AVE SB,,36.202232,-86.761792,,,,,,0
LISGATSF,LISGATSF,LISCHEY AVE & GATEWOOD AVE SB,,36.198892,-86.762388,,,,,,
LISMARSF,LISMARSF,LISCHEY AVE & MARIE ST SB,1380 LISCHEY AVE,36.196073,-86.762889,,,,,,0
LISGATNN,LISGATNN,LISCHEY AVE & GATEWOOD AVE NB,,36.199077,-86.762262,,,,,,
RIVPORSN,RIVPORSN,RIVERSIDE DR & PORTER RD SB,,36.195518,-86.723559,,,,,,0
WED15AEF,WED15AEF,WEDGEWOOD AVE & 15TH AVE S EB,,36.135904,-86.791639,,,,,,
WED15AWF,WED15AWF,WEDGEWOOD AVE & 15TH AVE S WB,,36.136129,-86.792241,,,,,,
WED12AEF,WED12AEF,WEDGEWOOD AVE & 12TH AVE S EB,,36.136059,-86.78829,,,,,,
WED12AWN,WED12AWN,WEDGEWOOD AVE & 12TH AVE S WB,,36.136225,-86.788401,,,,,,
WEDHILEF,WEDHILEF,WEDGEWOOD AVE & HILLSIDE AVE EB,,36.134648,-86.783631,,,,,,
WEDHILWF,WEDHILWF,WEDGEWOOD AVE & HILLSIDE AVE WB,,36.134879,-86.784337,,,,,,
WED8AVEN,WED8AVEN,WEDEWOOD AVE & 8TH AVE S EB,,36.134158,-86.779306,,,,,,
WED8AVWN,WED8AVWN,WEDGEWOOD AVE & 8TH AVE S WB,,36.134333,-86.778933,,,,,,
WEDMARWN,WEDMARWN,WEDGEWOOD AVE & MARTIN ST WB,,36.133499,-86.770303,,,,,,
LISDOUSN,LISDOUSN,LISCHEY AVE & DOUGLAS AVE SB,,36.193722,-86.76329,,,,,,
JONTRINF,JONTRINF,JONES AVE & TRINITY LN NB,,36.205552,-86.75752,,,,,,
21AMURSN,21AMURSN,21ST AVE N & MURPHY AVE SB,,36.155394,-86.804953,,,,,,
CHA20AEF,CHA20AEF,CHARLOTTE AVE & 20TH AVE EB,,36.15712,-86.803218,,,,,,0
CHA20AWN,CHA20AWN,CHARLOTTE AVE & 20TH AVE WB,,36.157269,-86.80345,,,,,,1
NEELAREF,NEELAREF,NEELYS BEND RD & LARKIN SPRINGS RD EB,,36.249416,-86.686334,0,,,,,
CHEMANNF,CHEMANNF,CHEYENNE BLVD & MANZANO RD NB,,36.257698,-86.677769,,,,,,
CHEWARNF,CHEWARNF,CHEYENNE BLVD & WARRIOR RD NB,,36.259274,-86.678827,,,,,,
OLDLARWF,OLDLARWF,E OLD HICKORY BLVD & LARKIN SPRINGS,,36.262692,-86.684728,,,,,,
GALCARNF,GALCARNF,GALLATIN PK & CAROLYN AVE NB,,36.197274,-86.741814,,,,,,0
GALCARSN,GALCARSN,GALLATIN PK & CAROLYN AVE SB,,36.197152,-86.742074,,,,,,
GALOLDNM,GALOLDNM,GALLATIN PIKE & OLD HICKORY NB,,36.264336,-86.711352,,,,,,
GALLOVSN,GALLOVSN,GALLATIN PIKE & LOVELL ST SB,,36.268494,-86.710836,,,,,,
GALBROSF,GALBROSF,GALLATIN PIKE & BROADMOOR SB,4556 GALLATIN PIKE & BROADMOOR DR,36.228731,-86.725305,,,0,,,0
CLECRESM,CLECRESM,CLEGHORN AVE & CRESTMOOR RD SB,,36.108103,-86.818967,,,,,,0
FAIGRESN,FAIGRESN,FAIRFIELD AVE & GREEN ST SB,,36.152845,-86.75644,,,,,,
JEF21AWN,JEF21AWN,JEFFERSON ST & 21ST AVE N WB,1986 JEFFERSON ST & 21ST AVE,36.169146,-86.809428,,,,,,0
CHA33AWF,CHA33AWF,CHARLOTTE AVE & 33RD AVE WB,3304 CHARLOTTE AVE & 33RD AVE,36.152929,-86.824502,,,,,,0
HERFAIWF,HERFAIWF,HERMITAGE AVE & FAIRFIELD AVE WB,,36.154046,-86.756457,,,,,,0
HERFAIEF,HERFAIEF,HERMITAGE AVE & FAIRFIELD AVE EB,,36.153711,-86.755372,,,,,,
MURALUEF,MURALUEF,MURFREESBORO PIKE & ALUMNI DR EB,352 MURFREESBORO PIKE & LESTER AVE,36.145551,-86.752862,,,,,,0
BELHICNM,BELHICNM,BELL RD & HICKORY HIGHLANDS NB,640 BELL RD,36.061918,-86.638152,0,,,,,0
FRAKIRSF,FRAKIRSF,FRANKLIN PIKE & KIRKWOOD AVE SB,,36.121084,-86.775465,,,,,,
DBTJEFNF,DBTJEFNF,DR DB TODD JR BLVD & JEFFERSON ST N,,36.169891,-86.806731,0,,,,,
DRDALBSN,DRDALBSN,DR DB TODD JR BLVD & ALBION SB,,36.166411,-86.805459,,,,,,
CHENEENF,CHENEENF,CHEYENNE BLVD & NEELY'S BEND RD NB,,36.241059,-86.67336,,,,,,
DRDALBNF,DRDALBNF,DR DB TODD JR BLVD & ALBION NB,1005 DR DB TODD JR BLVD & ALBION ST,36.166593,-86.805387,,,,,,0
SHE16SWN,SHE16SWN,SHELBY AVE & S 16TH ST WB,,36.170521,-86.74272,0,,,,,
PORFRASF,PORFRASF,PORTER & FRANKLIN SB,,36.183255,-86.732786,,,,,,0
PORBENSF,PORBENSF,PORTER RD & BENJAMIN SB,,36.185654,-86.73098,0,,,,,0
BRITALNN,BRITALNN,BRICK CHURCH PIKE & TALBOTS CORNER NB,,36.205174,-86.777841,0,,,,,
LEBTYLSN,LEBTYLSN,LEBANON PIKE & TYLER DR SB,,36.201464,-86.617744,0,,,,,
WBBTNF,WBBTNF,WHITE BRIDGE RD & BROOKWOOD TERRACE,,36.129801,-86.85491,0,,,,,0
WBBTSN,WBBTSN,WHITE BRIDGE PIKE & BROOKWOOD TERRA,,36.129506,-86.854763,,,,,,0
WESCHRWN,WESCHRWN,WEST END & CHRISTOPHER WB,,36.13278,-86.830579,0,,,,,
18ACASNN,18ACASNN,18TH AVE N & CASS ST NB,,36.184445,-86.812277,,,,,,
CEC15AEN,CEC15AEN,CECILIA ST & 15TH AVE N EB,,36.187534,-86.81149,,,,,,
CAS12AEN,CAS12AEN,CASS ST & 12TH AVE N EB,,36.185483,-86.808334,,,,,,
CAS9AVEN,CAS9AVEN,CASS ST & 9TH AVE N EB,,36.186527,-86.804188,,,,,,
ROSHUMNN,ROSHUMNN,ROSA PARKS BLVD & HUME ST NB,1400 ROSA PARKS BLVD,36.178845,-86.795014,,,,,,1
GARJENWN,GARJENWN,GARFIELD ST & JENKINS ST WB,,36.179972,-86.798108,,,,,,0
ROSHUMSN,ROSHUMSN,ROSA PARKS BLVD & HUME ST SB,50 ROSA PARKS BLVD,36.178888,-86.795338,,,0,,,1
NEEALLEM,NEEALLEM,NEELYS BEND RD & ALLEN PASS EB,1248 NEELYS BEND RD,36.24137,-86.67483,0,,,,,
OLDCHRSN,OLDCHRSN,OLD MATTHEWS & CHRIS ST SB,,36.213582,-86.795242,0,,,,,
DICSUNNN,DICSUNNN,DICKERSON PIKE & SUNSET DR NB,,36.223139,-86.761061,0,,,,,
DICMARSM,DICMARSM,DICERKSON PIKE & MARIE SB,,36.198467,-86.770894,0,,,,,
DICEVASF,DICEVASF,DICKERSON PIKE & EVANSTON RD SB,,36.18983,-86.773075,0,,,,,
BUCCEPWN,BUCCEPWN,BUCHANAN ST & CEPHAS ST WB,1082 BUCHANAN ST & 11TH AVE,36.180339,-86.805537,0,,0,,,1
BAUGREEM,BAUGREEM,BAUGH RD & GREEN MEADOWS EB,,36.06914,-86.935704,,,,,,
MTVCURNN,MTVCURNN,MT VIEW RD & CURTIS HOLLOW RD NB,,36.050908,-86.650893,,,,,,
CHE2AVEF,CHE2AVEF,CHESTNUT & 2ND AVE S EB,,36.145891,-86.764291,,,0,,,0
DRDHERNF,DRDHERNF,DR DB TODD & HERMOSA NB,,36.164543,-86.804504,0,,,,,
DBTHEINF,DBTHEINF,DR DB TODD BLVD & HEIMAN ST NB,1353 DR DB TODD JR BLVD & HEIMAN ST,36.171661,-86.807475,,,,,,0
DBTHEISF,DBTHEISF,DR DB TODD BLVD & HEIMAN ST SB,1279 DR DB TODD JR BLVD & HEIMAN ST,36.171184,-86.807413,,,,,,0
DWMRTX,DWMRTX,DICKERSON RD WALMART EXIT,DICKERSON PIKE & DICKERSON RD WALMART DRIVEWAY,36.24654,-86.757077,0,,,,,0
DICMAPNF,DICMAPNF,DICKERSON PIKE & MAPLEWOOD TRACE NB,,36.233801,-86.758443,,,,,,0
DICMAPSF,DICMAPSF,DICKERSON PIKE & MAPLEWOOD TRACE SB,3162 ,36.232782,-86.758819,0,,,,,0
MCGMUSWF,MCGMUSWF,MCGAVOCK PIKE & MUSIC VALLEY DR WB,I 40,36.21722,-86.6968,,,,,,0
OPRCOMSN,OPRCOMSN,OPRY MILLS DRIVE & COMMISSARY BLDNG,286 17TH AVE,36.21431,-86.701,,,,,,0
OPRWARSN,OPRWARSN,OPRY MILLS DRIVE & WARDROBE BLDNG,,36.210818,-86.699784,,,,,,0
DICBRONF,DICBRONF,DICKERSON PIKE & BROADMOOR NB,DICKERSON PIKE & RAMP,36.229675,-86.759112,0,,,,,0
EAGDOVSN,EAGDOVSN,EAGLEWOOD LN & DOVERSIDE DR SB,,36.241298,-86.767984,,,,,,0
OPRGENSN,OPRGENSN,OPRY MILLS DR & GENERAL JACKSON'S,243 OPRY MILLS DR,36.204344,-86.695126,,,,,,0
19SLILSF,19SLILSF,S 19TH ST & LILLIAN ST SB,312 19TH ST S & LILLIAN ST,36.171708,-86.737265,,,,,,0
WOO5STWF,WOO5STWF,WOODLAND ST & S 5TH ST WB,449 WOODLAND ST,36.171619,-86.765476,,,,,,0
RIVMCGSF,RIVMCGSF,RIVERSIDE DR & MCGAVOCK PK SB,RIVERSIDE DR & CONNECTING ROAD,36.204352,-86.724137,,,,,,0
COLHWYSF,COLHWYSF,COLICE JEANNE RD & HWY 70 SB,689 COLICE JEANNE RD,36.073501,-86.935334,,,,,,0
COLBAUNF,COLBAUNF,COLICE JEANNE RD & BAUGH RD NB,607 COLICE JEANNE RD & BAUGH RD,36.069474,-86.933429,,,,,,0
COLBAUSN,COLBAUSN,COLICE JEANNE RD & BAUGH RD SB,603 COLICE JEANNE RD & BAUGH RD,36.069342,-86.933604,,,,,,0
MURTHOSF,MURTHOSF,MURFREESBORO PIKE & THOMPSON LANE SB,RAMP & MURFREESBORO PIKE,36.126341,-86.710864,0,,,,,0
DICWESSF,DICWESSF,DICKERSON PIKE & WESTCHESTER DR SB,3790 DICKERSON PIKE & WESTCHESTER DR,36.262972,-86.757457,,,,,,0
DICBELNN,DICBELNN,DICKERSON PIKE & BELLSHIRE DR NB,3694 DICKERSON PIKE & BELLSHIRE DR,36.259203,-86.757722,,,,,,0
GRAWDUSF,GRAWDUSF,GRAYCROFT AVE & W DUE WEST AVE SB,1214 GRAYCROFT AVE S & W DUE WEST AVE,36.248791,-86.734629,,,,,,0
GRAWDUNN,GRAWDUNN,GRAYCROFT AVE & W DUE WEST AVE NB,GRAYCROFT AVE S & W DUE WEST AVE,36.249038,-86.73439,,,,,,0
DUESAUEF,DUESAUEF,W DUE WEST AVE & SAUNDERS AVE EB,384 W DUE WEST AVE & SAUNDERS AVE,36.248478,-86.728139,,,,,,0
WDUSAUWF,WDUSAUWF,W DUE WEST AVE & SAUNDERS AVE WB,414 W DUE WEST AVE & SAUNDERS AVE,36.248708,-86.729007,,,,,,0
DICTUCNF,DICTUCNF,DICKERSON PIKE & TUCKAHOE DR NB,3740 DICKERSON PIKE & TUCKAHOE DR,36.26144,-86.757429,,,,,,0
DICDUENF,DICDUENF,DICKERSON PIKE & DUE WEST AVE N NB,3584 DICKERSON PIKE & N DUE WEST AVE,36.25664,-86.757824,,,,,,0
EOL4AVEF,EOL4AVEF,E OLD HICKORY BLVD & 4TH AVE EB,411 OLD HICKORY BLVD E & 4TH AVE,36.26271,-86.704983,,,,,,0
BELDICWF,BELDICWF,BELL GRIMES LN & DICKERSON PIKE WB,1014 BELL GRIMES LN,36.268507,-86.756811,,,,,,0
BELBELWM,BELBELWM,BELL GRIMES LN & BELLSHIRE ELEMENTA,1114 BELL GRIMES LN,36.269105,-86.762295,,,,,,0
EDTHEINF,EDTHEINF,ED TEMPLE BLVD & HEIMAN ST NB,1231 ED TEMPLE BLVD & HEIMAN ST,36.169972,-86.82122,,,,,,0
EDTDRWNN,EDTDRWNN,ED TEMPLE BLVD & DR WALTER S DAVIS,1591 ED TEMPLE BLVD & WALTER S DAVIS BLVD,36.173768,-86.822424,,,,,,0
EDTBUCNF,EDTBUCNF,ED TEMPLE BLVD & BUCHANAN ST NB,1813 ED TEMPLE BLVD & BUCHANAN ST,36.181218,-86.824131,,,,,,0
EDT28ANF,EDT28ANF,ED TEMPLE BLVD & 28TH AVE N NB,2013 ED TEMPLE BLVD & 28TH AVE,36.186297,-86.822882,,,,,,0
EDTHEISN,EDTHEISN,ED TEMPLE BLVD & HEIMAN ST SB,1231 ED TEMPLE BLVD & HEIMAN ST,36.169948,-86.821455,,,,,,0
EDTDRWSF,EDTDRWSF,ED TEMPLE BLVD & DR WALTER S DAVIS,1571 ED TEMPLE BLVD & WALTER S DAVIS BLVD,36.173506,-86.822462,,,,,,0
EDTBUCSN,EDTBUCSN,ED TEMPLE BLVD & BUCHANAN ST SB,1809 ED TEMPLE BLVD & BUCHANAN ST,36.181151,-86.824348,,,,,,0
EDT28ASF,EDT28ASF,ED TEMPLE BLVD & 28TH AVE N SB,1987 ED TEMPLE BLVD & 28TH AVE,36.185884,-86.82347,,,,,,0
GLEBENEN,GLEBENEN,GLEN ECHO RD & BENHAM AVE EB,1914 GLEN ECHO RD & BENHAM AVE,36.107998,-86.809671,,,,,,0
HILRICSN,HILRICSN,HILLMONT DR & RICHARD JONES RD,1882 HILLMONT DR,36.104937,-86.808859,,,,,,0
SHAORIEN,SHAORIEN,SHACKLEFORD RD & ORIOLE PL EB,4117 LONE OAK RD & SHACKLEFORD RD,36.101831,-86.807544,0,,,,,0
STRGALEF,STRGALEF,STRATFORD AVE & GALLATIN PIKE EB,1125 STRATFORD AVE,36.214368,-86.729807,,,,,,0
STRKENEN,STRKENEN,STRATFORD AVE & KENNEDY AVE EB,1327 STRATFORD AVE & KENNEDY AVE,36.213216,-86.721787,,,,,,0
KENARDNN,KENARDNN,KENNEDY AVE & ARDEE AVE NB,3994 KENNEDY AVE & ARDEE AVE,36.21547,-86.719777,,,,,,0
NDUDUPWM,NDUDUPWM,N DUPONT AVE & DUPONT AVE APARTMENT,653 DUPONT AVE N,36.267293,-86.696937,0,,,,,0
REVWHIWF,REVWHIWF,REVELS DR & WHITES CREEK PK WB,540 REVELS DR,36.221122,-86.805488,,,,,,1
PORCRENF,PORCRENF,PORTER RD & CREIGHTON AVE NB,1403 PORTER RD & CREIGHTON AVE,36.190996,-86.727937,0,,,,,0
PORCRESN,PORCRESN,PORTER RD & CREIGHTON AVE SB,103 CREIGHTON AVE & PORTER RD,36.191002,-86.728102,,,,,,0
SKYSKYWN,SKYSKYWN,SKYLINE RIDGE DR & SKYLINE HOSP WB,826 OLD DUE WEST AVE & SKYLINE MEMORIAL CT,36.248661,-86.748798,0,,,,,0
S20BOSNN,S20BOSNN,S 20TH ST & BOSCOBEL ST NB,392 20TH ST S & BOSCOBEL ST,36.170894,-86.735729,,,,,,0
32ABATSF,32ABATSF,32ND AVE N & BATAVIA ST SB,881 32ND AVE & BATAVIA ST,36.160266,-86.824094,0,,,,,0
ELMPOPWN,ELMPOPWN,ELM HILL PIKE & POPLAR ST WB,1400 ELM HILL PIKE & POPLAR ST,36.14392,-86.727437,,,,,,1
HER28AWM,HER28AWM,HERMAN ST & 28TH AVE N WB,2732 HERMAN ST & 27TH AVE,36.16191,-86.81808,,,,,,0
HARDAVWM,HARDAVWM,HARDING PIKE & DAVIDSON RD WB,5068 HARDING PIKE,36.107804,-86.866338,,,,,,2
HARLEAEM,HARLEAEM,HARDING PIKE & LEAKE AVE EB,5076 HARDING PIKE,36.107166,-86.866652,,,,,,2
LAWSON H,LAWSON H,LAWSON HIGH SCHOOL,,36.078527,-86.977168,0,,0,,,0
CHALILSN,CHALILSN,CHARLOTTE PIKE & LILY VALLEY WAY SB,7140 CHARLOTTE PIKE,36.12604,-86.90913,0,,,,,2
CHA720SN,CHA720SN,CHARLOTTE PIKE & 7201 CHARLOTTE PIK,7170 CHARLOTTE PIKE & OLD CHARLOTTE PIKE,36.124174,-86.910723,,,,,,0
CHAOLDSN,CHAOLDSN,CHARLOTTE PIKE & OLD CHARLOTTE PIKE,,36.120114,-86.9183,,,,,,2
OLDCHASF,OLDCHASF,OLD HICKORY BLVD & CHARLOTTE PIKE S,695 OLD HICKORY BLVD & RAMP,36.115983,-86.923308,,,,,,2
H70BELWF,H70BELWF,HWY 70S & BELLEVUE RD WB,7449 USHY 70S & BELLEVUE RD,36.07566,-86.940641,,,,,,2
H70HARWF,H70HARWF,HWY 70S & HARPETH VALLEY RD WB,USHY 70S & HARPETH VALLEY RD,36.082487,-86.958546,,,,,,2
H70HAREN,H70HAREN,HWY 70S & HARPETH VALLEY RD EB,7733 USHY 70S & HARPETH VALLEY RD,36.082232,-86.958489,0,,,,,0
H70BELEF,H70BELEF,HWY 70S & BELLEVUE RD EB,7437 USHY 70S,36.075258,-86.939905,,,,,,0
OLDHINNF,OLDHINNF,OLD HICKORY BLVD & HINDU TEMPLE NB,545 ,36.101589,-86.922733,,,,,,0
OLDCHANN,OLDCHANN,OLD HICKORY BLVD & CHARLOTTE PIKE N,695 OLD HICKORY BLVD & RAMP,36.116014,-86.923075,,,,,,2
CHAOLDNF,CHAOLDNF,CHARLOTTE PIKE & OLD CHARLOTTE PIKE,7292 CHARLOTTE PIKE & OLD CHARLOTTE PIKE,36.120068,-86.918141,,,,,,2
CHA720NF,CHA720NF,CHARLOTTE PIKE & 7201 CHARLOTTE PIK,7166 CHARLOTTE PIKE,36.124359,-86.910299,,,,,,2
CHALILNN,CHALILNN,CHARLOTTE PIKE & LILY VALLEY WAY NB,7136 CHARLOTTE PIKE,36.126111,-86.908831,0,,,,,2
OLDWOONF,OLDWOONF,OLD HICKORY BLVD & WOODBURY FALLS D,367 OLD HICKORY BLVD & WOODBURY FALLS DR,36.087721,-86.920569,,,,,,2
H70CROWF,H70CROWF,HWY 70 S & CROSS TIMBERS DR WB,7405 USHY 70S & CROSS TIMBERS DR,36.07424,-86.93569,,,,,,0
OLDROCSN,OLDROCSN,OLD HICKORY BLVD & ROCKY LANE SB,619 OLD HICKORY BLVD & ROCKY LN,36.108093,-86.922562,,,,,,0
2AJOHSM,2AJOHSM,2ND AVE N & JO JOHNSON AVE SB,555 2ND AVE,36.169715,-86.78005,,,,,,0
32AALAEF,32AALAEF,32ND AVE N & ALAMEDA ST,1087 32ND AVE & ALAMEDA ST,36.164781,-86.825204,,,,,,0
WALRAIWN,WALRAIWN,WALSH & RAINS WB (GEODIS),492 WALSH RD & WILSON DR,36.132889,-86.764667,,,,,,0
WALRAIEF,WALRAIEF,WALSH & RAINS EB (GEODIS),474 WALSH RD,36.132647,-86.763788,,,,,,0
KINHAYWN,KINHAYWN,KINGS LN & HAYNES PARK DR WB,,36.218863,-86.834114,0,,,,,0
HARGALWF,HARGALWF,HART LANE & GALLATIN PIKE WB,,36.211961,-86.733179,0,,,,,
HARSAUWF,HARSAUWF,HART LANE & SAUNDERS AVE WB,,36.216234,-86.738107,0,,,,,
HARBENWF,HARBENWF,HART LANE & BEN ALLEN RD WB,,36.217623,-86.743784,0,,,,,
HARGASEF,HARGASEF,HART LANE & R.S. GASS BLVE EB,,36.217331,-86.743048,0,,,,,
HARSAUEN,HARSAUEN,HART LANE & SAUNDERS AVE EB,,36.216218,-86.738395,0,,,,,
HARGALEN,HARGALEN,HART LANE & GALLATIN PIKE EB,,36.212071,-86.733838,0,,,,,
BOYBUESF,BOYBUESF,BOYD DR & BUENAVIEW BLVD SB,,36.227504,-86.827355,0,,,,,
CLAFAINM,CLAFAINM,CLARKSVILLE PIKE & E FAIRVIEW DR NB,,36.209699,-86.839201,0,,,,,
BUEHUMNN,BUEHUMNN,BUENA VISTA PIKE & HUMMINGBIRD DR NB,,36.21915,-86.820867,0,,,,,
BUEKINNN,BUEKINNN,BUENA VISTA PIKE & KINGS LN NB,,36.220848,-86.821294,0,,,,,
BUEKINNM,BUEKINNM,BUENA VISTA PIKE & KINGS LN NB,,36.226077,-86.822754,0,,,,,
BUEBUEWF,BUEBUEWF,BUENAVIEW BLVD & BUENA VISTA PIKE WB,,36.228315,-86.824139,0,,,,,
BOYAMESN,BOYAMESN,BOYD DR & AMES DR SB,,36.226285,-86.826989,0,,,,,
LYTBOYSF,LYTBOYSF,LYTLE DR & BOYD DR SB,,36.222357,-86.827158,0,,,,,
MEALYTSN,MEALYTSN,MEADOW HILL DR & LYTLE DR SB,,36.221266,-86.825115,0,,,,,
KINMEAWF,KINMEAWF,KINGS LN & MEADOW HILL DR WB,,36.220183,-86.825755,0,,,,,
KINBOYEN,KINBOYEN,KINGS LN & BOYD DR EB,,36.219455,-86.829027,0,,,,,
KINBOYWN,KINBOYWN,KINGS LN & BOYD DR WB,,36.219588,-86.828684,0,,,,,
KINCLAEN,KINCLAEN,KINGS LN & CLARKSVILLE PK EB,,36.218413,-86.837493,0,,,,,
KINTEMEM,KINTEMEM,KINGS LN & TEMPLE CHURCH PARK AND RIDE EB,,36.217643,-86.843024,0,,,,,
CRECRENF,CRECRENF,CREEKWOOD & CREEKLAND CT NB,,36.216902,-86.846095,0,,,,,
CRECREWN,CRECREWN,CREEKWAY CT & CREEKWOOD WB,,36.213814,-86.845683,0,,,,,
TIMFAINF,TIMFAINF,TIMOTHY DR & FAIRVIEW DR NB,,36.212284,-86.844614,0,,,,,
CLAABENN,CLAABENN,CLARKSVILLE PIKE & ABERNATHY RD NB,,36.203152,-86.84037,0,,,,,
CLAASHNF,CLAASHNF,CLARKSVILLE PIKE & ASHLAND CITY HWY NB,,36.198551,-86.837911,0,,,,,
CLAMANNN,CLAMANNN,CLARKSVILLE PIKE & MANCHESTER AVE S NB,,36.195381,-86.833777,0,,,,,
CLASHANF,CLASHANF,CLARKSVILLE PIKE & S HAMILTON RD NB,,36.194185,-86.831771,0,,,,,
WHIUPSNN,WHIUPSNN,WHITES CREEK PIKE & UPS NB,,36.231161,-86.813101,0,,,,,
KNIFEDNN,KNIFEDNN,KNIGHT AND FEDEX GROUND DR SB,,36.235395,-86.803416,0,,,,,
EWIGWYEN,EWIGWYEN,EWING DR & GWYNNWOOD DR EB,,36.231452,-86.792609,0,,,,,
BRCBRCSN,BRCBRCSN,BRICK CHURCH PIKE AND BRICK CHURCH PARK DR SB,,36.223861,-86.782371,0,,,,,
BRCFERSN,BRCFERSN,BRICK CHURCH PIKE AND FERENCO SB,,36.220106,-86.782445,0,,,,,
BRIAVOSF,BRIAVOSF,BRICK CHURCH PIKE AND AVONDALE SB,,36.208172,-86.777881,0,,,,,
ROSGARNN,ROSGARNN,ROSA PARKS BLVD & GARFIELD ST NB,,36.180509,-86.796108,0,,,,,
DOMMETWF,DOMMETWF,DOMINICAN DR & METRO CENTER BLVD WB,,36.187867,-86.799129,0,,,,,
ATHDOMNM,ATHDOMNM,ATHENS WAY & DOMINICAN DR NB,,36.189393,-86.800943,0,,,,,
10APONSF,10APONSF,10TH AVE N & PONDER PL SB,,36.190243,-86.80616,0,,,,,
CAS10AWF,CAS10AWF,CASS ST & 10TH AVE N WB,,36.186299,-86.805513,0,,,,,
CAS12AWF,CAS12AWF,CASS ST & 12TH AVE N WB,,36.185502,-86.808626,0,,,,,
CEC15AWF,CEC15AWF,CECILIA ST & 15TH AVE N WB,,36.18757,-86.811806,0,,,,,
18ACASSN,18ACASSN,18TH AVE N & CASS ST SB,,36.184707,-86.812363,0,,,,,
ROS10AEF,ROS10AEF,ROSA L PARKS BLVD & 10TH AVE N EB,,36.193498,-86.806291,0,,,,,
VANFREEF,VANFREEF,VANTAGE WAY & FRENCH LANDING DR EB,,36.191031,-86.796501,0,,,,,
GREVANNF,GREVANNF,GREAT CIRCLE RD & VANTAGE WAY NB,,36.193581,-86.791305,0,,0,,,0
GRATHEWN,GRATHEWN,GREAT CIRCLE RD & ATHENS WAY WB,,36.196292,-86.792515,0,,,,,
OSA23AWF,OSA23AWF,OSAGE ST & 23RD AVE N WB,,36.17665,-86.814005,0,,,,,
ATHGRESM,ATHGRESM,ATHENS WAY & GREAT CIRCLE SB,,36.198101,-86.798701,0,,,,,
OSA23AEN,OSA23AEN,OSAGE ST & 23RD AVE N EB,,36.176582,-86.813791,0,,,,,
25AFINSF,25AFINSF,25TH AVE N & FINLAND ST SB,,36.176889,-86.816449,0,,,,,
ATHFRENN,ATHFRENN,ATHENS WAY & FRENCH LANDING DR NB,,36.195701,-86.799681,0,,,,,
DEL26ASN,DEL26ASN,DELK AVE & 26TH AVE N EB,,36.178496,-86.819349,0,,,,,
26ASALSF,26ASALSF,26TH AVE N & SALEM MASON DR SB,,36.181858,-86.819448,0,,,,,
BUECLIWN,BUECLIWN,BUENA VISTA PIKE & CLIFF DR WB,,36.197348,-86.828025,0,,,,,
BUECLIEF,BUECLIEF,BUENA VISTA PIKE & CLIFF DR EB,,36.197289,-86.827815,0,,,,,
BUEMATSM,BUEMATSM,BUENA VISTA PIKE & MATTIE ST SB,,36.199387,-86.826058,0,,,,,
BUEWTRWF,BUEWTRWF,BUENA VISTA PIKE & W TRINITY LANE WB,,36.202354,-86.820781,0,,,,,
TRIKEEWF,TRIKEEWF,TRINITY LANE & KEELING AVE WB,,36.204322,-86.744838,0,,,,,
TRIKEEEN,TRIKEEEN,TRINITY LANE & KEELING AVE EB,,36.204229,-86.745145,0,,,,,
WTRBUEEM,WTRBUEEM,W TRINITY LANE & BUENA VISTA PIKE EB,,36.202697,-86.820139,0,,,,,
ETRDRRWF,ETRDRRWF,E TRINITY LANE & DR RICHARD G ADAMS WB,,36.204616,-86.748096,0,,,,,
ETRDRREN,ETRDRREN,E TRINITY LANE & DR RICHARD G ADAMS EB,,36.204449,-86.747812,0,,,,,
ETROAKWF,ETROAKWF,E TRINITY LANE & OAKWOOD AVE WB,,36.204883,-86.752946,0,,,,,
ETROAKEN,ETROAKEN,E TRINITY LANE & OAKWOOD AVE EB,,36.204721,-86.752784,0,,,,,
ETRJONWF,ETRJONWF,E TRINITY LANE & JONES AVE WB,,36.205261,-86.758304,0,,,,,
ETRJONEF,ETRJONEF,E TRINITY LANE & JONES AVE EB,,36.20501,-86.756934,0,,,,,
WTROLDWF,WTROLDWF,W TRINITY LANE & OLD BUENA VISTA RD WB,,36.206074,-86.811501,0,,,,,
WTRYOUEN,WTRYOUEN,W TRINITY LANE & YOUNGS LANE EB,,36.205929,-86.811237,0,,,,,
ATHMETNF,ATHMETNF,ATHENS WAY & METROCENTER NB,,36.193781,-86.801301,0,,,,,
GREROSSM,GREROSSM,GREAT CIRCLE RD & ROSA L PARKS BLVD SB,,36.196281,-86.808701,0,,,,,
GREROSNM,GREROSNM,GREAT CIRCLE RD & ROSA L PARKS BLVD NB,,36.196341,-86.808501,0,,,,,
MAIGREWM,MAIGREWM,MAINSTREAM DR & GREAT CIRCLE RD WB,,36.199731,-86.809301,0,,0,,,0
MAIFREEF,MAIFREEF,MAINSTREAM DR & FREELAND STN RD EB,,36.199486,-86.812675,0,,,,,
MAIFREWM,MAIFREWM,MAINSTREAM DR & FREELAND RD WB,,36.199541,-86.812801,0,,,,,
MNFREWM,MNFREWM,MAINSTREAM DR & FREELAND RD WB,,36.197911,-86.816701,0,,,,,
MNFRESM,MNFRESM,MAINSTREAM DR & FREELAND STN RD SB,,36.195355,-86.817769,0,,,,,
ROS24AEM,ROS24AEM,ROSA L PARKS BLVD & 24TH AVE N EB,,36.191871,-86.817031,0,,,,,
GALLELNF,GALLELNF,GALLATIN AVE & LELAND AVE NB,,36.204141,-86.73805,0,,,,,
ETRDICEF,ETRDICEF,E TRINITY LANE & DICKERSON PIKE EB,,36.205783,-86.768153,0,,,,,
ETRDICWN,ETRDICWN,E TRINITY LANE & DICKERSON PIKE WB,,36.205962,-86.768146,0,,,,,
WTRMONWN,WTRMONWN,W TRINITY LANE & MONTICELLO DR WB,,36.207391,-86.783657,0,,,,,
WTRMONEF,WTRMONEF,W TRINITY LANE & MONTICELLO DR EB,,36.207236,-86.783727,0,,,,,
WTROLDWN,WTROLDWN,W TRINITY LANE & OLD MATTHEWS RD WB,,36.208437,-86.788711,0,,,,,
EWIBRIEN,EWIBRIEN,EWING DR & BRICK CHURCH EB,,36.23156,-86.781808,0,,0,,,0
WTROLDEN,WTROLDEN,W TRINITY LANE & OLD MATTHEWS RD EB,,36.208084,-86.789418,0,,,,,
WTRWHIWF,WTRWHIWF,W TRINITY LANE & WHITES CREEK PIKE WB,,36.206981,-86.792213,0,,,,,
WTRWHIEF,WTRWHIEF,W TRINITY LANE & WHITES CREEK PIKE EB,,36.207143,-86.791146,0,,,,,
WTRLIVWF,WTRLIVWF,W TRINITY LANE & LIVANO WB,,36.207198,-86.799116,0,,,,,
WTRLIVEN,WTRLIVEN,W TRINITY LANE & LIVANO EB,,36.206993,-86.799067,0,,,,,
PONATHWM,PONATHWM,PONDER PL & ATHENS WAY WB,,36.191712,-86.804177,0,,,,,
GREATHWN,GREATHWN,GREAT CIRCLE RD & ATHENS WAY WB,,36.198552,-86.795419,0,,,,,
ATHGRENN,ATHGRENN,ATHENS WAY & GREAT CIRCLE RD NB,,36.197779,-86.798586,0,,,,,
OLDTRINF,OLDTRINF,OLD MATHEWS RD AND TRINITY HILLS PARKWAY NB,,36.212319,-86.78952,0,,,,,
BRITRISF,BRITRISF,BRICK CHURCH PIKE & W TRINITY LN SB,,36.205161,-86.778106,0,,,,,
FAICLAWF,FAICLAWF,FAIRVIEW DR & CLARKSVILLE PK WB,,36.211217,-86.839784,0,,,,,
NNTC_1,NNTC_1,N NASHVILLE TC BAY 1,,36.185724,-86.817963,0,,0,NNTC,,1
NNTC_3,NNTC_3,N NASHVILLE TC BAY 3,,36.185542,-86.818308,0,,0,NNTC,,1
NNTC_4,NNTC_4,N NASHVILLE TC BAY 4,,36.185507,-86.818529,0,,0,NNTC,,1
NNTC_2,NNTC_2,N NASHVILLE TC BAY 2,,36.185583,-86.818094,0,,0,NNTC,,1
NNTC_9,NNTC_9,N NASHVILLE TC BAY 9,,36.186054,-86.818303,0,,0,NNTC,,1
OLDPAPSN,OLDPAPSN,OLD MATHEWS AND PAPUS CT. SB,,36.21861,-86.793848,0,,,,,
LEBDONWM,LEBDONWM,LEBANON PIKE & DONELSON PIKE WB,,36.167234,-86.660707,0,,,,,
ANDRACSN,ANDRACSN,ANDREW JACKSON PKWY & RACHEL DONELSON PASS SB,,36.200513,-86.607944,0,,,,,
HERSTAWF,HERSTAWF,HERMITAGE AVE & STANLEY ST WB,,36.153394,-86.750708,0,,,,,
LEBSPRNM,LEBSPRNM,LEBANON PIKE & SPRING PLACE DR NB,,36.174861,-86.646469,0,,,,,
BRISOUSM,BRISOUSM,BRICK CHURCH PIKE AND SOUTHERLAND DR SB,,36.213309,-86.779299,0,,,,,
BRIWEANM,BRIWEANM,BRICK CHURCH PIKE AND WEAKLY AVE NB,,36.198014,-86.776872,0,,,,,
GRETISEF,GRETISEF,GREEN LN & TISDALL DR EB,,36.237063,-86.807033,0,,,,,
ETRLISEN,ETRLISEN,E TRINITY LANE & LISCHEY AVE EB,,36.205374,-86.761371,0,,,,,
ETRLISWM,ETRLISWM,E TRINITY LANE & LISCHEY AVE WB,,36.205493,-86.761501,0,,,,,
NNTC_10,NNTC_10,N NASHVILLE TC BAY 10,,36.186261,-86.818393,0,,0,NNTC,,1
BRAPORSN,BRAPORSN,BRANCH ST & PORTER RD SB,,36.194078,-86.726,0,,,,,
ROSMAIWF,ROSMAIWF,ROSA L PARKS BLVD & MAINSTREAM DR WB,,36.19239,-86.81636,0,,,,,
MERHANSN,MERHANSN,MERIDIAN ST & HANCOCK ST SB,,36.183933,-86.768553,0,,,,,
FAILAFNF,FAILAFNF,FAIRFIELD AVE & LAFAYETTE ST NB,,36.147733,-86.757673,0,,,,,
FAICANNN,FAICANNN,FAIRFIELD AVE & CANNON ST NB,,36.150274,-86.756928,0,,,,,
FAICANSF,FAICANSF,FAIRFIELD AVE & CANNON ST SB,,36.150129,-86.757133,0,,,,,
MLK10AEF,MLK10AEF,MARTIN LUTHER KING JR & 10TH AVE N EB,,36.163462,-86.787281,0,,,,,
NNTC,NNTC,NORTH NASHVILLE TRANSIT CENTER,,36.185779,-86.818166,0,,1,,,1
